[{"id":"1","name":"Quezon City Flood Control Phase 2","label":"Barangay Talayan, District 1","lat":14.6217,"lng":121.0148,"projectId":"1"},{"id":"2","name":"Pasig River Esplanade Phase 4","label":"Pasig City","lat":14.5764,"lng":121.0851,"projectId":"2"},{"id":"3","name":"Mandaluyong Bridge Rehabilitation","label":"Boni-Hulo, Mandaluyong City","lat":14.5738,"lng":121.0357,"projectId":"3"},{"id":"aborlan-palawan","name":"Aborlan","label":"Municipality, Palawan","lat":9.48941,"lng":118.46554},{"id":"abra-de-ilog-occidental-mindoro","name":"Abra de Ilog","label":"Municipality, Occidental Mindoro","lat":13.38727,"lng":120.74246},{"id":"abucay-bataan","name":"Abucay","label":"Municipality, Bataan","lat":14.71567,"lng":120.47821},{"id":"abulug-cagayan","name":"Abulug","label":"Municipality, Cagayan","lat":18.3958,"lng":121.43034},{"id":"abuyog-leyte","name":"Abuyog","label":"Municipality, Leyte","lat":10.649,"lng":125.03374},{"id":"adams-ilocos-norte","name":"Adams","label":"Municipality, Ilocos Norte","lat":18.44014,"lng":120.91634},{"id":"agdangan-quezon","name":"Agdangan","label":"Municipality, Quezon","lat":13.88708,"lng":121.9189},{"id":"aglipay-quirino","name":"Aglipay","label":"Municipality, Quirino","lat":16.44114,"lng":121.61933},{"id":"agno-pangasinan","name":"Agno","label":"Municipality, Pangasinan","lat":16.10864,"lng":119.82449},{"id":"agoncillo-batangas","name":"Agoncillo","label":"Municipality, Batangas","lat":13.96616,"lng":120.93261},{"id":"agoo-la-union","name":"Agoo","label":"Municipality, La Union","lat":16.33286,"lng":120.37349},{"id":"aguilar-pangasinan","name":"Aguilar","label":"Municipality, Pangasinan","lat":15.82133,"lng":120.23616},{"id":"aguinaldo-ifugao","name":"Aguinaldo","label":"Municipality, Ifugao","lat":16.93091,"lng":121.32803},{"id":"ajuy-iloilo","name":"Ajuy","label":"Municipality, Iloilo","lat":11.13859,"lng":122.99686},{"id":"akbar-basilan","name":"Akbar","label":"Municipality, Basilan","lat":6.60906,"lng":122.18849},{"id":"al-barka-basilan","name":"Al-Barka","label":"Municipality, Basilan","lat":6.5152,"lng":122.12965},{"id":"alabat-quezon","name":"Alabat","label":"Municipality, Quezon","lat":14.12472,"lng":122.0209},{"id":"alabel-sarangani","name":"Alabel","label":"Municipality, Sarangani","lat":6.15567,"lng":125.40113},{"id":"alamada-north-cotabato","name":"Alamada","label":"Municipality, North Cotabato","lat":7.46943,"lng":124.56531},{"id":"alaminos-laguna","name":"Alaminos","label":"Municipality, Laguna","lat":14.04087,"lng":121.24534},{"id":"alaminos-city-pangasinan","name":"Alaminos City","label":"City, Pangasinan","lat":16.16128,"lng":119.96258},{"id":"alangalang-leyte","name":"Alangalang","label":"Municipality, Leyte","lat":11.21537,"lng":124.86541},{"id":"albuera-leyte","name":"Albuera","label":"Municipality, Leyte","lat":10.91806,"lng":124.74384},{"id":"albuquerque-bohol","name":"Albuquerque","label":"Municipality, Bohol","lat":9.63479,"lng":123.96542},{"id":"alcala-cagayan","name":"Alcala","label":"Municipality, Cagayan","lat":17.92677,"lng":121.66832},{"id":"alcala-pangasinan","name":"Alcala","label":"Municipality, Pangasinan","lat":15.85939,"lng":120.53465},{"id":"alcantara-cebu","name":"Alcantara","label":"Municipality, Cebu","lat":9.96689,"lng":123.44904},{"id":"alcantara-romblon","name":"Alcantara","label":"Municipality, Romblon","lat":12.28447,"lng":122.06655},{"id":"alcoy-cebu","name":"Alcoy","label":"Municipality, Cebu","lat":9.72236,"lng":123.46803},{"id":"alegria-cebu","name":"Alegria","label":"Municipality, Cebu","lat":9.75116,"lng":123.38456},{"id":"alegria-surigao-del-norte","name":"Alegria","label":"Municipality, Surigao del Norte","lat":9.49359,"lng":125.60553},{"id":"aleosan-north-cotabato","name":"Aleosan","label":"Municipality, North Cotabato","lat":7.17863,"lng":124.62792},{"id":"alfonso-cavite","name":"Alfonso","label":"Municipality, Cavite","lat":14.12486,"lng":120.85309},{"id":"alfonso-castaneda-nueva-vizcaya","name":"Alfonso Castaneda","label":"Municipality, Nueva Vizcaya","lat":15.93777,"lng":121.28902},{"id":"alfonso-lista-ifugao","name":"Alfonso Lista","label":"Municipality, Ifugao","lat":16.93775,"lng":121.48722},{"id":"aliaga-nueva-ecija","name":"Aliaga","label":"Municipality, Nueva Ecija","lat":15.50607,"lng":120.86068},{"id":"alicia-bohol","name":"Alicia","label":"Municipality, Bohol","lat":9.89822,"lng":124.43135},{"id":"alicia-isabela","name":"Alicia","label":"Municipality, Isabela","lat":16.81048,"lng":121.6692},{"id":"alicia-zamboanga-sibugay","name":"Alicia","label":"Municipality, Zamboanga Sibugay","lat":7.54949,"lng":122.92503},{"id":"alilem-ilocos-sur","name":"Alilem","label":"Municipality, Ilocos Sur","lat":16.89229,"lng":120.58974},{"id":"alimodian-iloilo","name":"Alimodian","label":"Municipality, Iloilo","lat":10.85521,"lng":122.37656},{"id":"alitagtag-batangas","name":"Alitagtag","label":"Municipality, Batangas","lat":13.87103,"lng":121.01597},{"id":"allacapan-cagayan","name":"Allacapan","label":"Municipality, Cagayan","lat":18.20698,"lng":121.543},{"id":"allen-northern-samar","name":"Allen","label":"Municipality, Northern Samar","lat":12.52347,"lng":124.34319},{"id":"almeria-biliran","name":"Almeria","label":"Municipality, Biliran","lat":11.63529,"lng":124.41401},{"id":"aloguinsan-cebu","name":"Aloguinsan","label":"Municipality, Cebu","lat":10.19478,"lng":123.57773},{"id":"aloran-misamis-occidental","name":"Aloran","label":"Municipality, Misamis Occidental","lat":8.40371,"lng":123.75171},{"id":"altavas-aklan","name":"Altavas","label":"Municipality, Aklan","lat":11.51989,"lng":122.48417},{"id":"alubijid-misamis-oriental","name":"Alubijid","label":"Municipality, Misamis Oriental","lat":8.51251,"lng":124.44428},{"id":"amadeo-cavite","name":"Amadeo","label":"Municipality, Cavite","lat":14.18403,"lng":120.91994},{"id":"ambaguio-nueva-vizcaya","name":"Ambaguio","label":"Municipality, Nueva Vizcaya","lat":16.53934,"lng":121.05514},{"id":"amlan-negros-oriental","name":"Amlan","label":"Municipality, Negros Oriental","lat":9.42746,"lng":123.17317},{"id":"ampatuan-maguindanao","name":"Ampatuan","label":"Municipality, Maguindanao","lat":6.80078,"lng":124.38461},{"id":"amulung-cagayan","name":"Amulung","label":"Municipality, Cagayan","lat":17.8225,"lng":121.70024},{"id":"anahawan-southern-leyte","name":"Anahawan","label":"Municipality, Southern Leyte","lat":10.29534,"lng":125.21091},{"id":"anao-tarlac","name":"Anao","label":"Municipality, Tarlac","lat":15.74423,"lng":120.61879},{"id":"anda-bohol","name":"Anda","label":"Municipality, Bohol","lat":9.76402,"lng":124.55568},{"id":"angadanan-isabela","name":"Angadanan","label":"Municipality, Isabela","lat":16.77889,"lng":121.78991},{"id":"angat-bulacan","name":"Angat","label":"Municipality, Bulacan","lat":14.9349,"lng":121.03119},{"id":"angeles-city-pampanga","name":"Angeles City","label":"City, Pampanga","lat":15.14073,"lng":120.56179},{"id":"angono-rizal","name":"Angono","label":"Municipality, Rizal","lat":14.54471,"lng":121.16517},{"id":"anilao-iloilo","name":"Anilao","label":"Municipality, Iloilo","lat":11.01086,"lng":122.7434},{"id":"antequera-bohol","name":"Antequera","label":"Municipality, Bohol","lat":9.78475,"lng":123.90583},{"id":"antipas-north-cotabato","name":"Antipas","label":"Municipality, North Cotabato","lat":7.29596,"lng":125.02125},{"id":"antipolo-city-rizal","name":"Antipolo City","label":"City, Rizal","lat":14.65654,"lng":121.26065},{"id":"apalit-pampanga","name":"Apalit","label":"Municipality, Pampanga","lat":14.94649,"lng":120.81491},{"id":"aparri-cagayan","name":"Aparri","label":"Municipality, Cagayan","lat":18.3364,"lng":121.64682},{"id":"araceli-palawan","name":"Araceli","label":"Municipality, Palawan","lat":10.5659,"lng":119.90012},{"id":"arakan-north-cotabato","name":"Arakan","label":"Municipality, North Cotabato","lat":7.31392,"lng":125.17247},{"id":"arayat-pampanga","name":"Arayat","label":"Municipality, Pampanga","lat":15.1957,"lng":120.7743},{"id":"argao-cebu","name":"Argao","label":"Municipality, Cebu","lat":9.90313,"lng":123.5476},{"id":"aringay-la-union","name":"Aringay","label":"Municipality, La Union","lat":16.40794,"lng":120.40704},{"id":"aritao-nueva-vizcaya","name":"Aritao","label":"Municipality, Nueva Vizcaya","lat":16.2321,"lng":121.00317},{"id":"aroroy-masbate","name":"Aroroy","label":"Municipality, Masbate","lat":12.45473,"lng":123.33268},{"id":"arteche-eastern-samar","name":"Arteche","label":"Municipality, Eastern Samar","lat":12.21558,"lng":125.33096},{"id":"asingan-pangasinan","name":"Asingan","label":"Municipality, Pangasinan","lat":15.99947,"lng":120.65192},{"id":"asipulo-ifugao","name":"Asipulo","label":"Municipality, Ifugao","lat":16.69291,"lng":121.08461},{"id":"asturias-cebu","name":"Asturias","label":"Municipality, Cebu","lat":10.60774,"lng":123.82419},{"id":"asuncion-davao-del-norte","name":"Asuncion","label":"Municipality, Davao del Norte","lat":7.58785,"lng":125.75874},{"id":"atimonan-quezon","name":"Atimonan","label":"Municipality, Quezon","lat":13.98551,"lng":121.88724},{"id":"atok-benguet","name":"Atok","label":"Municipality, Benguet","lat":16.56943,"lng":120.69858},{"id":"aurora-isabela","name":"Aurora","label":"Municipality, Isabela","lat":16.97933,"lng":121.64252},{"id":"aurora-zamboanga-del-sur","name":"Aurora","label":"Municipality, Zamboanga del Sur","lat":7.92646,"lng":123.55498},{"id":"ayungon-negros-oriental","name":"Ayungon","label":"Municipality, Negros Oriental","lat":9.8727,"lng":123.05942},{"id":"baao-camarines-sur","name":"Baao","label":"Municipality, Camarines Sur","lat":13.4787,"lng":123.36195},{"id":"babatngon-leyte","name":"Babatngon","label":"Municipality, Leyte","lat":11.37858,"lng":124.88638},{"id":"bacacay-albay","name":"Bacacay","label":"Municipality, Albay","lat":13.28018,"lng":123.78675},{"id":"bacarra-ilocos-norte","name":"Bacarra","label":"Municipality, Ilocos Norte","lat":18.25894,"lng":120.61174},{"id":"baclayon-bohol","name":"Baclayon","label":"Municipality, Bohol","lat":9.6389,"lng":123.92051},{"id":"bacnotan-la-union","name":"Bacnotan","label":"Municipality, La Union","lat":16.73639,"lng":120.38462},{"id":"baco-oriental-mindoro","name":"Baco","label":"Municipality, Oriental Mindoro","lat":13.27952,"lng":121.06457},{"id":"bacolod-lanao-del-norte","name":"Bacolod","label":"Municipality, Lanao del Norte","lat":8.13415,"lng":124.02736},{"id":"bacolod-city-negros-occidental","name":"Bacolod City","label":"City, Negros Occidental","lat":10.655,"lng":123.00578},{"id":"bacolod-kalawi-lanao-del-sur","name":"Bacolod Kalawi","label":"Municipality, Lanao del Sur","lat":7.88117,"lng":124.12045},{"id":"bacolor-pampanga","name":"Bacolor","label":"Municipality, Pampanga","lat":15.0411,"lng":120.66365},{"id":"bacong-negros-oriental","name":"Bacong","label":"Municipality, Negros Oriental","lat":9.24376,"lng":123.26416},{"id":"bacoor-cavite","name":"Bacoor","label":"Municipality, Cavite","lat":14.41465,"lng":120.96286},{"id":"bacuag-surigao-del-norte","name":"Bacuag","label":"Municipality, Surigao del Norte","lat":9.56064,"lng":125.62714},{"id":"bacungan-zamboanga-del-norte","name":"Bacungan","label":"Municipality, Zamboanga del Norte","lat":8.05027,"lng":122.95493},{"id":"badian-cebu","name":"Badian","label":"Municipality, Cebu","lat":9.84019,"lng":123.42027},{"id":"badiangan-iloilo","name":"Badiangan","label":"Municipality, Iloilo","lat":10.98562,"lng":122.53525},{"id":"badoc-ilocos-norte","name":"Badoc","label":"Municipality, Ilocos Norte","lat":17.90796,"lng":120.53037},{"id":"bagabag-nueva-vizcaya","name":"Bagabag","label":"Municipality, Nueva Vizcaya","lat":16.57916,"lng":121.27238},{"id":"bagac-bataan","name":"Bagac","label":"Municipality, Bataan","lat":14.58914,"lng":120.42724},{"id":"bagamanoc-catanduanes","name":"Bagamanoc","label":"Municipality, Catanduanes","lat":13.95472,"lng":124.24935},{"id":"baganga-davao-oriental","name":"Baganga","label":"Municipality, Davao Oriental","lat":7.60305,"lng":126.38603},{"id":"baggao-cagayan","name":"Baggao","label":"Municipality, Cagayan","lat":17.9328,"lng":121.96663},{"id":"bago-city-negros-occidental","name":"Bago City","label":"City, Negros Occidental","lat":10.51078,"lng":122.96309},{"id":"baguio-city-benguet","name":"Baguio City","label":"City, Benguet","lat":16.40322,"lng":120.5895},{"id":"bagulin-la-union","name":"Bagulin","label":"Municipality, La Union","lat":16.59836,"lng":120.48946},{"id":"bagumbayan-sultan-kudarat","name":"Bagumbayan","label":"Municipality, Sultan Kudarat","lat":6.42887,"lng":124.48685},{"id":"bais-city-negros-oriental","name":"Bais City","label":"City, Negros Oriental","lat":9.62043,"lng":123.00314},{"id":"bakun-benguet","name":"Bakun","label":"Municipality, Benguet","lat":16.81208,"lng":120.71157},{"id":"balabac-palawan","name":"Balabac","label":"Municipality, Palawan","lat":8.06642,"lng":117.1496},{"id":"balabagan-lanao-del-sur","name":"Balabagan","label":"Municipality, Lanao del Sur","lat":7.53974,"lng":124.14824},{"id":"balagtas-bulacan","name":"Balagtas","label":"Municipality, Bulacan","lat":14.82325,"lng":120.92221},{"id":"balamban-cebu","name":"Balamban","label":"Municipality, Cebu","lat":10.47069,"lng":123.7827},{"id":"balanga-city-bataan","name":"Balanga City","label":"City, Bataan","lat":14.66404,"lng":120.49894},{"id":"balangiga-eastern-samar","name":"Balangiga","label":"Municipality, Eastern Samar","lat":11.2135,"lng":125.34416},{"id":"balangkayan-eastern-samar","name":"Balangkayan","label":"Municipality, Eastern Samar","lat":11.40055,"lng":125.38906},{"id":"balaoan-la-union","name":"Balaoan","label":"Municipality, La Union","lat":16.80142,"lng":120.39491},{"id":"balasan-iloilo","name":"Balasan","label":"Municipality, Iloilo","lat":11.45386,"lng":123.09343},{"id":"balatan-camarines-sur","name":"Balatan","label":"Municipality, Camarines Sur","lat":13.34461,"lng":123.24878},{"id":"balayan-batangas","name":"Balayan","label":"Municipality, Batangas","lat":13.98472,"lng":120.74924},{"id":"balbalan-kalinga","name":"Balbalan","label":"Municipality, Kalinga","lat":17.52678,"lng":121.12093},{"id":"baleno-masbate","name":"Baleno","label":"Municipality, Masbate","lat":12.41824,"lng":123.48687},{"id":"baler-aurora","name":"Baler","label":"Municipality, Aurora","lat":15.73744,"lng":121.52887},{"id":"balete-batangas","name":"Balete","label":"Municipality, Batangas","lat":14.01056,"lng":121.10197},{"id":"balete-aklan","name":"Balete","label":"Municipality, Aklan","lat":11.52792,"lng":122.37689},{"id":"baliangao-misamis-occidental","name":"Baliangao","label":"Municipality, Misamis Occidental","lat":8.59523,"lng":123.61939},{"id":"baliguian-zamboanga-del-norte","name":"Baliguian","label":"Municipality, Zamboanga del Norte","lat":7.81284,"lng":122.26568},{"id":"balilihan-bohol","name":"Balilihan","label":"Municipality, Bohol","lat":9.76827,"lng":124.00253},{"id":"balindong-lanao-del-sur","name":"Balindong","label":"Municipality, Lanao del Sur","lat":7.92115,"lng":124.17582},{"id":"balingasag-misamis-oriental","name":"Balingasag","label":"Municipality, Misamis Oriental","lat":8.7372,"lng":124.8027},{"id":"balingoan-misamis-oriental","name":"Balingoan","label":"Municipality, Misamis Oriental","lat":8.94153,"lng":124.87212},{"id":"baliuag-bulacan","name":"Baliuag","label":"Municipality, Bulacan","lat":14.94693,"lng":120.90378},{"id":"ballesteros-cagayan","name":"Ballesteros","label":"Municipality, Cagayan","lat":18.35798,"lng":121.51482},{"id":"baloi-lanao-del-norte","name":"Baloi","label":"Municipality, Lanao del Norte","lat":8.08797,"lng":124.20392},{"id":"balud-masbate","name":"Balud","label":"Municipality, Masbate","lat":12.01259,"lng":123.23929},{"id":"balungao-pangasinan","name":"Balungao","label":"Municipality, Pangasinan","lat":15.8961,"lng":120.69378},{"id":"bamban-tarlac","name":"Bamban","label":"Municipality, Tarlac","lat":15.2458,"lng":120.4782},{"id":"bambang-nueva-vizcaya","name":"Bambang","label":"Municipality, Nueva Vizcaya","lat":16.39017,"lng":121.15179},{"id":"banate-iloilo","name":"Banate","label":"Municipality, Iloilo","lat":11.04654,"lng":122.79333},{"id":"banaue-ifugao","name":"Banaue","label":"Municipality, Ifugao","lat":16.94165,"lng":121.10397},{"id":"banaybanay-davao-oriental","name":"Banaybanay","label":"Municipality, Davao Oriental","lat":7.09574,"lng":126.13038},{"id":"banayoyo-ilocos-sur","name":"Banayoyo","label":"Municipality, Ilocos Sur","lat":17.24126,"lng":120.4984},{"id":"banga-aklan","name":"Banga","label":"Municipality, Aklan","lat":11.60006,"lng":122.33255},{"id":"banga-south-cotabato","name":"Banga","label":"Municipality, South Cotabato","lat":6.38446,"lng":124.819},{"id":"bangar-la-union","name":"Bangar","label":"Municipality, La Union","lat":16.87609,"lng":120.43036},{"id":"bangued-abra","name":"Bangued","label":"Municipality, Abra","lat":17.60786,"lng":120.61175},{"id":"bangui-ilocos-norte","name":"Bangui","label":"Municipality, Ilocos Norte","lat":18.46691,"lng":120.76855},{"id":"bani-pangasinan","name":"Bani","label":"Municipality, Pangasinan","lat":16.1968,"lng":119.84538},{"id":"banisilan-north-cotabato","name":"Banisilan","label":"Municipality, North Cotabato","lat":7.46237,"lng":124.70941},{"id":"banna-ilocos-norte","name":"Banna","label":"Municipality, Ilocos Norte","lat":17.99582,"lng":120.65989},{"id":"bansalan-davao-del-sur","name":"Bansalan","label":"Municipality, Davao del Sur","lat":6.84201,"lng":125.20994},{"id":"bansud-oriental-mindoro","name":"Bansud","label":"Municipality, Oriental Mindoro","lat":12.8291,"lng":121.36487},{"id":"bantay-ilocos-sur","name":"Bantay","label":"Municipality, Ilocos Sur","lat":17.6004,"lng":120.44551},{"id":"bantayan-cebu","name":"Bantayan","label":"Municipality, Cebu","lat":11.19083,"lng":123.73835},{"id":"baras-catanduanes","name":"Baras","label":"Municipality, Catanduanes","lat":13.68604,"lng":124.3665},{"id":"baras-rizal","name":"Baras","label":"Municipality, Rizal","lat":14.54294,"lng":121.26686},{"id":"barbaza-antique","name":"Barbaza","label":"Municipality, Antique","lat":11.25967,"lng":122.12025},{"id":"barcelona-sorsogon","name":"Barcelona","label":"Municipality, Sorsogon","lat":12.83944,"lng":124.11436},{"id":"barili-cebu","name":"Barili","label":"Municipality, Cebu","lat":10.11449,"lng":123.53246},{"id":"barira-shariff-kabunsuan","name":"Barira","label":"Municipality, Shariff Kabunsuan","lat":7.4637,"lng":124.3139},{"id":"barlig-mountain-province","name":"Barlig","label":"Municipality, Mountain Province","lat":17.09999,"lng":121.14346},{"id":"barobo-surigao-del-sur","name":"Barobo","label":"Municipality, Surigao del Sur","lat":8.51938,"lng":126.19157},{"id":"barotac-nuevo-iloilo","name":"Barotac Nuevo","label":"Municipality, Iloilo","lat":10.90531,"lng":122.71878},{"id":"barotac-viejo-iloilo","name":"Barotac Viejo","label":"Municipality, Iloilo","lat":11.07992,"lng":122.85268},{"id":"baroy-lanao-del-norte","name":"Baroy","label":"Municipality, Lanao del Norte","lat":7.97887,"lng":123.81616},{"id":"barugo-leyte","name":"Barugo","label":"Municipality, Leyte","lat":11.31483,"lng":124.75358},{"id":"basay-negros-oriental","name":"Basay","label":"Municipality, Negros Oriental","lat":9.45866,"lng":122.67274},{"id":"basey-samar","name":"Basey","label":"Municipality, Samar","lat":11.41887,"lng":125.11486},{"id":"basilisa-dinagat-islands","name":"Basilisa","label":"Municipality, Dinagat Islands","lat":10.08631,"lng":125.54792},{"id":"basista-pangasinan","name":"Basista","label":"Municipality, Pangasinan","lat":15.86647,"lng":120.41378},{"id":"basud-camarines-norte","name":"Basud","label":"Municipality, Camarines Norte","lat":13.98816,"lng":122.96611},{"id":"batac-city-ilocos-norte","name":"Batac City","label":"City, Ilocos Norte","lat":18.03268,"lng":120.57252},{"id":"batad-iloilo","name":"Batad","label":"Municipality, Iloilo","lat":11.40742,"lng":123.08453},{"id":"batan-aklan","name":"Batan","label":"Municipality, Aklan","lat":11.58621,"lng":122.41525},{"id":"batangas-city-batangas","name":"Batangas City","label":"City, Batangas","lat":13.7291,"lng":121.10277},{"id":"bataraza-palawan","name":"Bataraza","label":"Municipality, Palawan","lat":8.59604,"lng":117.45087},{"id":"bato-camarines-sur","name":"Bato","label":"Municipality, Camarines Sur","lat":13.31848,"lng":123.32818},{"id":"bato-catanduanes","name":"Bato","label":"Municipality, Catanduanes","lat":13.61147,"lng":124.30766},{"id":"bato-leyte","name":"Bato","label":"Municipality, Leyte","lat":10.333,"lng":124.83823},{"id":"batuan-bohol","name":"Batuan","label":"Municipality, Bohol","lat":9.7952,"lng":124.13414},{"id":"bauan-batangas","name":"Bauan","label":"Municipality, Batangas","lat":13.80519,"lng":120.96494},{"id":"bauang-la-union","name":"Bauang","label":"Municipality, La Union","lat":16.51367,"lng":120.35963},{"id":"bauko-mountain-province","name":"Bauko","label":"Municipality, Mountain Province","lat":16.95419,"lng":120.89658},{"id":"baungon-bukidnon","name":"Baungon","label":"Municipality, Bukidnon","lat":8.26918,"lng":124.75012},{"id":"bautista-pangasinan","name":"Bautista","label":"Municipality, Pangasinan","lat":15.79626,"lng":120.53304},{"id":"bay-laguna","name":"Bay","label":"Municipality, Laguna","lat":14.14136,"lng":121.24955},{"id":"bayabas-surigao-del-sur","name":"Bayabas","label":"Municipality, Surigao del Sur","lat":8.97864,"lng":126.26741},{"id":"bayambang-pangasinan","name":"Bayambang","label":"Municipality, Pangasinan","lat":15.81168,"lng":120.46185},{"id":"bayang-lanao-del-sur","name":"Bayang","label":"Municipality, Lanao del Sur","lat":7.74364,"lng":124.20319},{"id":"bayawan-city-negros-oriental","name":"Bayawan City","label":"City, Negros Oriental","lat":9.523,"lng":122.81977},{"id":"baybay-city-leyte","name":"Baybay City","label":"City, Leyte","lat":10.71212,"lng":124.83875},{"id":"bayog-zamboanga-del-sur","name":"Bayog","label":"Municipality, Zamboanga del Sur","lat":7.90593,"lng":123.03598},{"id":"bayombong-nueva-vizcaya","name":"Bayombong","label":"Municipality, Nueva Vizcaya","lat":16.49241,"lng":121.14778},{"id":"bayugan-city-agusan-del-sur","name":"Bayugan City","label":"City, Agusan del Sur","lat":8.81813,"lng":125.77538},{"id":"belison-antique","name":"Belison","label":"Municipality, Antique","lat":10.84309,"lng":121.99601},{"id":"benito-soliven-isabela","name":"Benito Soliven","label":"Municipality, Isabela","lat":16.90412,"lng":121.91349},{"id":"besao-mountain-province","name":"Besao","label":"Municipality, Mountain Province","lat":17.12208,"lng":120.83074},{"id":"bien-unido-bohol","name":"Bien Unido","label":"Municipality, Bohol","lat":10.10579,"lng":124.36819},{"id":"bilar-bohol","name":"Bilar","label":"Municipality, Bohol","lat":9.71104,"lng":124.12232},{"id":"biliran-biliran","name":"Biliran","label":"Municipality, Biliran","lat":11.52196,"lng":124.48087},{"id":"binalbagan-negros-occidental","name":"Binalbagan","label":"Municipality, Negros Occidental","lat":10.1307,"lng":122.97966},{"id":"binalonan-pangasinan","name":"Binalonan","label":"Municipality, Pangasinan","lat":16.07024,"lng":120.59315},{"id":"binangonan-rizal","name":"Binangonan","label":"Municipality, Rizal","lat":14.48213,"lng":121.18775},{"id":"bindoy-negros-oriental","name":"Bindoy","label":"Municipality, Negros Oriental","lat":9.80206,"lng":123.04676},{"id":"bingawan-iloilo","name":"Bingawan","label":"Municipality, Iloilo","lat":11.18818,"lng":122.56651},{"id":"binidayan-lanao-del-sur","name":"Binidayan","label":"Municipality, Lanao del Sur","lat":7.74787,"lng":124.16251},{"id":"binmaley-pangasinan","name":"Binmaley","label":"Municipality, Pangasinan","lat":16.00011,"lng":120.29},{"id":"binuangan-misamis-oriental","name":"Binuangan","label":"Municipality, Misamis Oriental","lat":8.91902,"lng":124.81228},{"id":"bislig-city-surigao-del-sur","name":"Bislig City","label":"City, Surigao del Sur","lat":8.20295,"lng":126.33516},{"id":"bi-an-laguna","name":"Biñan","label":"Municipality, Laguna","lat":14.29792,"lng":121.05297},{"id":"boac-marinduque","name":"Boac","label":"Municipality, Marinduque","lat":13.38838,"lng":121.90503},{"id":"bobon-northern-samar","name":"Bobon","label":"Municipality, Northern Samar","lat":12.40555,"lng":124.52913},{"id":"bocaue-bulacan","name":"Bocaue","label":"Municipality, Bulacan","lat":14.79527,"lng":120.94527},{"id":"bogo-city-cebu","name":"Bogo City","label":"City, Cebu","lat":11.03268,"lng":123.99751},{"id":"bokod-benguet","name":"Bokod","label":"Municipality, Benguet","lat":16.45796,"lng":120.78643},{"id":"bolinao-pangasinan","name":"Bolinao","label":"Municipality, Pangasinan","lat":16.32061,"lng":119.84676},{"id":"boliney-abra","name":"Boliney","label":"Municipality, Abra","lat":17.37981,"lng":120.87586},{"id":"boljoon-cebu","name":"Boljoon","label":"Municipality, Cebu","lat":9.63673,"lng":123.44738},{"id":"bombon-camarines-sur","name":"Bombon","label":"Municipality, Camarines Sur","lat":13.68685,"lng":123.20798},{"id":"bongabon-nueva-ecija","name":"Bongabon","label":"Municipality, Nueva Ecija","lat":15.65529,"lng":121.22675},{"id":"bongabong-oriental-mindoro","name":"Bongabong","label":"Municipality, Oriental Mindoro","lat":12.70857,"lng":121.39216},{"id":"bongao-tawi-tawi","name":"Bongao","label":"Municipality, Tawi-Tawi","lat":5.11628,"lng":119.87715},{"id":"bonifacio-misamis-occidental","name":"Bonifacio","label":"Municipality, Misamis Occidental","lat":8.08396,"lng":123.60312},{"id":"bontoc-mountain-province","name":"Bontoc","label":"Municipality, Mountain Province","lat":17.10569,"lng":120.99935},{"id":"bontoc-southern-leyte","name":"Bontoc","label":"Municipality, Southern Leyte","lat":10.37967,"lng":124.93492},{"id":"borbon-cebu","name":"Borbon","label":"Municipality, Cebu","lat":10.84652,"lng":124.0008},{"id":"borongan-city-eastern-samar","name":"Borongan City","label":"City, Eastern Samar","lat":11.59448,"lng":125.34064},{"id":"boston-davao-oriental","name":"Boston","label":"Municipality, Davao Oriental","lat":7.91177,"lng":126.29278},{"id":"botolan-zambales","name":"Botolan","label":"Municipality, Zambales","lat":15.2322,"lng":120.1827},{"id":"braulio-e-dujali-davao-del-norte","name":"Braulio E. Dujali","label":"Municipality, Davao del Norte","lat":7.43984,"lng":125.65704},{"id":"brooke-s-point-palawan","name":"Brooke's Point","label":"Municipality, Palawan","lat":8.86744,"lng":117.81289},{"id":"buadiposo-buntong-lanao-del-sur","name":"Buadiposo-Buntong","label":"Municipality, Lanao del Sur","lat":7.97797,"lng":124.39007},{"id":"bubong-lanao-del-sur","name":"Bubong","label":"Municipality, Lanao del Sur","lat":8.01861,"lng":124.47269},{"id":"bucay-abra","name":"Bucay","label":"Municipality, Abra","lat":17.52234,"lng":120.72474},{"id":"bucloc-abra","name":"Bucloc","label":"Municipality, Abra","lat":17.4432,"lng":120.84853},{"id":"buenavista-bohol","name":"Buenavista","label":"Municipality, Bohol","lat":10.04518,"lng":124.15631},{"id":"buenavista-agusan-del-norte","name":"Buenavista","label":"Municipality, Agusan del Norte","lat":8.87254,"lng":125.36281},{"id":"buenavista-guimaras","name":"Buenavista","label":"Municipality, Guimaras","lat":10.70382,"lng":122.65952},{"id":"buenavista-marinduque","name":"Buenavista","label":"Municipality, Marinduque","lat":13.26154,"lng":121.96934},{"id":"buenavista-quezon","name":"Buenavista","label":"Municipality, Quezon","lat":13.73863,"lng":122.43887},{"id":"bugallon-pangasinan","name":"Bugallon","label":"Municipality, Pangasinan","lat":15.90051,"lng":120.20168},{"id":"bugasong-antique","name":"Bugasong","label":"Municipality, Antique","lat":11.09955,"lng":122.14077},{"id":"buguey-cagayan","name":"Buguey","label":"Municipality, Cagayan","lat":18.26824,"lng":121.82033},{"id":"buguias-benguet","name":"Buguias","label":"Municipality, Benguet","lat":16.75609,"lng":120.82117},{"id":"buhi-camarines-sur","name":"Buhi","label":"Municipality, Camarines Sur","lat":13.44502,"lng":123.52018},{"id":"bula-camarines-sur","name":"Bula","label":"Municipality, Camarines Sur","lat":13.44442,"lng":123.27106},{"id":"bulacan-bulacan","name":"Bulacan","label":"Municipality, Bulacan","lat":14.76459,"lng":120.87753},{"id":"bulalacao-oriental-mindoro","name":"Bulalacao","label":"Municipality, Oriental Mindoro","lat":12.36072,"lng":121.32954},{"id":"bulan-sorsogon","name":"Bulan","label":"Municipality, Sorsogon","lat":12.65981,"lng":123.91645},{"id":"buldon-shariff-kabunsuan","name":"Buldon","label":"Municipality, Shariff Kabunsuan","lat":7.43,"lng":124.40288},{"id":"buluan-maguindanao","name":"Buluan","label":"Municipality, Maguindanao","lat":6.7142,"lng":124.79419},{"id":"bulusan-sorsogon","name":"Bulusan","label":"Municipality, Sorsogon","lat":12.75179,"lng":124.10037},{"id":"bumbaran-lanao-del-sur","name":"Bumbaran","label":"Municipality, Lanao del Sur","lat":7.71872,"lng":124.63365},{"id":"bunawan-agusan-del-sur","name":"Bunawan","label":"Municipality, Agusan del Sur","lat":8.19809,"lng":126.08653},{"id":"burauen-leyte","name":"Burauen","label":"Municipality, Leyte","lat":10.95199,"lng":124.86062},{"id":"burdeos-quezon","name":"Burdeos","label":"Municipality, Quezon","lat":14.92059,"lng":121.97261},{"id":"burgos-ilocos-norte","name":"Burgos","label":"Municipality, Ilocos Norte","lat":18.4553,"lng":120.6447},{"id":"burgos-ilocos-sur","name":"Burgos","label":"Municipality, Ilocos Sur","lat":17.31668,"lng":120.52128},{"id":"burgos-isabela","name":"Burgos","label":"Municipality, Isabela","lat":17.05614,"lng":121.73944},{"id":"burgos-la-union","name":"Burgos","label":"Municipality, La Union","lat":16.5112,"lng":120.47815},{"id":"burgos-pangasinan","name":"Burgos","label":"Municipality, Pangasinan","lat":16.0188,"lng":119.84569},{"id":"burgos-surigao-del-norte","name":"Burgos","label":"Municipality, Surigao del Norte","lat":10.00968,"lng":126.07399},{"id":"buruanga-aklan","name":"Buruanga","label":"Municipality, Aklan","lat":11.85166,"lng":121.94441},{"id":"bustos-bulacan","name":"Bustos","label":"Municipality, Bulacan","lat":14.91811,"lng":120.94702},{"id":"busuanga-palawan","name":"Busuanga","label":"Municipality, Palawan","lat":12.17637,"lng":119.95468},{"id":"butig-lanao-del-sur","name":"Butig","label":"Municipality, Lanao del Sur","lat":7.71074,"lng":124.31143},{"id":"butuan-city-agusan-del-norte","name":"Butuan City","label":"City, Agusan del Norte","lat":8.90985,"lng":125.59275},{"id":"buug-zamboanga-sibugay","name":"Buug","label":"Municipality, Zamboanga Sibugay","lat":7.7413,"lng":123.04503},{"id":"caba-la-union","name":"Caba","label":"Municipality, La Union","lat":16.43432,"lng":120.38592},{"id":"cabadbaran-city-agusan-del-norte","name":"Cabadbaran City","label":"City, Agusan del Norte","lat":9.13993,"lng":125.63885},{"id":"cabagan-isabela","name":"Cabagan","label":"Municipality, Isabela","lat":17.37967,"lng":121.82119},{"id":"cabanatuan-city-nueva-ecija","name":"Cabanatuan City","label":"City, Nueva Ecija","lat":15.5121,"lng":120.97559},{"id":"cabangan-zambales","name":"Cabangan","label":"Municipality, Zambales","lat":15.18102,"lng":120.11819},{"id":"cabanglasan-bukidnon","name":"Cabanglasan","label":"Municipality, Bukidnon","lat":8.06094,"lng":125.34441},{"id":"cabarroguis-quirino","name":"Cabarroguis","label":"Municipality, Quirino","lat":16.44036,"lng":121.502},{"id":"cabatuan-iloilo","name":"Cabatuan","label":"Municipality, Iloilo","lat":10.88092,"lng":122.49979},{"id":"cabatuan-isabela","name":"Cabatuan","label":"Municipality, Isabela","lat":16.93773,"lng":121.6614},{"id":"cabiao-nueva-ecija","name":"Cabiao","label":"Municipality, Nueva Ecija","lat":15.25662,"lng":120.84197},{"id":"cabucgayan-biliran","name":"Cabucgayan","label":"Municipality, Biliran","lat":11.49845,"lng":124.56768},{"id":"cabugao-ilocos-sur","name":"Cabugao","label":"Municipality, Ilocos Sur","lat":17.78489,"lng":120.47557},{"id":"cabusao-camarines-sur","name":"Cabusao","label":"Municipality, Camarines Sur","lat":13.73788,"lng":123.06364},{"id":"cabuyao-laguna","name":"Cabuyao","label":"Municipality, Laguna","lat":14.25024,"lng":121.10993},{"id":"cadiz-city-negros-occidental","name":"Cadiz City","label":"City, Negros Occidental","lat":10.82526,"lng":123.27409},{"id":"cagayan-de-oro-city-misamis-oriental","name":"Cagayan de Oro City","label":"City, Misamis Oriental","lat":8.38104,"lng":124.63435},{"id":"cagdianao-dinagat-islands","name":"Cagdianao","label":"Municipality, Dinagat Islands","lat":10.01722,"lng":125.65276},{"id":"cagwait-surigao-del-sur","name":"Cagwait","label":"Municipality, Surigao del Sur","lat":8.89084,"lng":126.23118},{"id":"caibiran-biliran","name":"Caibiran","label":"Municipality, Biliran","lat":11.56231,"lng":124.55544},{"id":"cainta-rizal","name":"Cainta","label":"Municipality, Rizal","lat":14.59353,"lng":121.12062},{"id":"cajidiocan-romblon","name":"Cajidiocan","label":"Municipality, Romblon","lat":12.40068,"lng":122.63357},{"id":"calabanga-camarines-sur","name":"Calabanga","label":"Municipality, Camarines Sur","lat":13.71227,"lng":123.24825},{"id":"calaca-batangas","name":"Calaca","label":"Municipality, Batangas","lat":13.98677,"lng":120.81402},{"id":"calamba-misamis-occidental","name":"Calamba","label":"Municipality, Misamis Occidental","lat":8.51771,"lng":123.66273},{"id":"calamba-city-laguna","name":"Calamba City","label":"City, Laguna","lat":14.18901,"lng":121.12249},{"id":"calanasan-apayao","name":"Calanasan","label":"Municipality, Apayao","lat":18.23208,"lng":121.04189},{"id":"calanogas-lanao-del-sur","name":"Calanogas","label":"Municipality, Lanao del Sur","lat":7.73737,"lng":124.04724},{"id":"calapan-city-oriental-mindoro","name":"Calapan City","label":"City, Oriental Mindoro","lat":13.31532,"lng":121.18448},{"id":"calape-bohol","name":"Calape","label":"Municipality, Bohol","lat":9.87346,"lng":123.88883},{"id":"calasiao-pangasinan","name":"Calasiao","label":"Municipality, Pangasinan","lat":15.99283,"lng":120.36561},{"id":"calatagan-batangas","name":"Calatagan","label":"Municipality, Batangas","lat":13.91933,"lng":120.65877},{"id":"calatrava-negros-occidental","name":"Calatrava","label":"Municipality, Negros Occidental","lat":10.61349,"lng":123.37079},{"id":"calatrava-romblon","name":"Calatrava","label":"Municipality, Romblon","lat":12.62571,"lng":122.06861},{"id":"calauag-quezon","name":"Calauag","label":"Municipality, Quezon","lat":14.03713,"lng":122.2826},{"id":"calauan-laguna","name":"Calauan","label":"Municipality, Laguna","lat":14.1439,"lng":121.28125},{"id":"calayan-cagayan","name":"Calayan","label":"Municipality, Cagayan","lat":19.32205,"lng":121.46806},{"id":"calbayog-city-samar","name":"Calbayog City","label":"City, Samar","lat":12.19219,"lng":124.61614},{"id":"calbiga-samar","name":"Calbiga","label":"Municipality, Samar","lat":11.62215,"lng":125.10252},{"id":"calinog-iloilo","name":"Calinog","label":"Municipality, Iloilo","lat":11.14574,"lng":122.49507},{"id":"calintaan-occidental-mindoro","name":"Calintaan","label":"Municipality, Occidental Mindoro","lat":12.59393,"lng":121.07854},{"id":"calubian-leyte","name":"Calubian","label":"Municipality, Leyte","lat":11.48159,"lng":124.37373},{"id":"calumpit-bulacan","name":"Calumpit","label":"Municipality, Bulacan","lat":14.88894,"lng":120.7781},{"id":"camalaniugan-cagayan","name":"Camalaniugan","label":"Municipality, Cagayan","lat":18.26783,"lng":121.68343},{"id":"camalig-albay","name":"Camalig","label":"Municipality, Albay","lat":13.15937,"lng":123.61964},{"id":"camaligan-camarines-sur","name":"Camaligan","label":"Municipality, Camarines Sur","lat":13.62346,"lng":123.16111},{"id":"camiling-tarlac","name":"Camiling","label":"Municipality, Tarlac","lat":15.69285,"lng":120.41711},{"id":"can-avid-eastern-samar","name":"Can-Avid","label":"Municipality, Eastern Samar","lat":11.9868,"lng":125.34904},{"id":"canaman-camarines-sur","name":"Canaman","label":"Municipality, Camarines Sur","lat":13.63612,"lng":123.144},{"id":"candaba-pampanga","name":"Candaba","label":"Municipality, Pampanga","lat":15.11087,"lng":120.89583},{"id":"candelaria-quezon","name":"Candelaria","label":"Municipality, Quezon","lat":13.95313,"lng":121.43653},{"id":"candelaria-zambales","name":"Candelaria","label":"Municipality, Zambales","lat":15.63228,"lng":120.06568},{"id":"candijay-bohol","name":"Candijay","label":"Municipality, Bohol","lat":9.82796,"lng":124.5001},{"id":"candon-city-ilocos-sur","name":"Candon City","label":"City, Ilocos Sur","lat":17.18931,"lng":120.48078},{"id":"candoni-negros-occidental","name":"Candoni","label":"Municipality, Negros Occidental","lat":9.76112,"lng":122.62727},{"id":"canlaon-city-negros-oriental","name":"Canlaon City","label":"City, Negros Oriental","lat":10.3429,"lng":123.19206},{"id":"cantilan-surigao-del-sur","name":"Cantilan","label":"Municipality, Surigao del Sur","lat":9.28277,"lng":125.88067},{"id":"caoayan-ilocos-sur","name":"Caoayan","label":"Municipality, Ilocos Sur","lat":17.53519,"lng":120.39338},{"id":"capalonga-camarines-norte","name":"Capalonga","label":"Municipality, Camarines Norte","lat":14.27804,"lng":122.47861},{"id":"capas-tarlac","name":"Capas","label":"Municipality, Tarlac","lat":15.3276,"lng":120.42781},{"id":"capoocan-leyte","name":"Capoocan","label":"Municipality, Leyte","lat":11.246,"lng":124.60573},{"id":"caraga-davao-oriental","name":"Caraga","label":"Municipality, Davao Oriental","lat":7.35893,"lng":126.44575},{"id":"caramoan-camarines-sur","name":"Caramoan","label":"Municipality, Camarines Sur","lat":13.78886,"lng":123.81102},{"id":"caramoran-catanduanes","name":"Caramoran","label":"Municipality, Catanduanes","lat":13.85962,"lng":124.20029},{"id":"carasi-ilocos-norte","name":"Carasi","label":"Municipality, Ilocos Norte","lat":18.22991,"lng":120.8842},{"id":"carcar-cebu","name":"Carcar","label":"Municipality, Cebu","lat":10.11851,"lng":123.63309},{"id":"cardona-rizal","name":"Cardona","label":"Municipality, Rizal","lat":14.4621,"lng":121.22065},{"id":"carigara-leyte","name":"Carigara","label":"Municipality, Leyte","lat":11.23042,"lng":124.6985},{"id":"carles-iloilo","name":"Carles","label":"Municipality, Iloilo","lat":11.53964,"lng":123.11931},{"id":"carmen-bohol","name":"Carmen","label":"Municipality, Bohol","lat":9.82028,"lng":124.20486},{"id":"carmen-agusan-del-norte","name":"Carmen","label":"Municipality, Agusan del Norte","lat":8.91607,"lng":125.27375},{"id":"carmen-cebu","name":"Carmen","label":"Municipality, Cebu","lat":10.59683,"lng":123.97525},{"id":"carmen-davao-del-norte","name":"Carmen","label":"Municipality, Davao del Norte","lat":7.36837,"lng":125.68382},{"id":"carmen-north-cotabato","name":"Carmen","label":"Municipality, North Cotabato","lat":7.33536,"lng":124.78869},{"id":"carmen-surigao-del-sur","name":"Carmen","label":"Municipality, Surigao del Sur","lat":9.17874,"lng":125.93365},{"id":"carmona-cavite","name":"Carmona","label":"Municipality, Cavite","lat":14.30179,"lng":121.02733},{"id":"carranglan-nueva-ecija","name":"Carranglan","label":"Municipality, Nueva Ecija","lat":15.97442,"lng":121.03767},{"id":"carrascal-surigao-del-sur","name":"Carrascal","label":"Municipality, Surigao del Sur","lat":9.33182,"lng":125.85915},{"id":"casiguran-sorsogon","name":"Casiguran","label":"Municipality, Sorsogon","lat":12.86369,"lng":124.03616},{"id":"casiguran-aurora","name":"Casiguran","label":"Municipality, Aurora","lat":16.26455,"lng":122.0308},{"id":"castilla-sorsogon","name":"Castilla","label":"Municipality, Sorsogon","lat":12.94407,"lng":123.81466},{"id":"castillejos-zambales","name":"Castillejos","label":"Municipality, Zambales","lat":14.93937,"lng":120.24889},{"id":"cataingan-masbate","name":"Cataingan","label":"Municipality, Masbate","lat":11.9963,"lng":123.95266},{"id":"catanauan-quezon","name":"Catanauan","label":"Municipality, Quezon","lat":13.63822,"lng":122.30137},{"id":"catarman-camiguin","name":"Catarman","label":"Municipality, Camiguin","lat":9.16472,"lng":124.67907},{"id":"catarman-northern-samar","name":"Catarman","label":"Municipality, Northern Samar","lat":12.41945,"lng":124.64714},{"id":"catbalogan-city-samar","name":"Catbalogan City","label":"City, Samar","lat":11.83237,"lng":124.88868},{"id":"cateel-davao-oriental","name":"Cateel","label":"Municipality, Davao Oriental","lat":7.78716,"lng":126.37303},{"id":"catigbian-bohol","name":"Catigbian","label":"Municipality, Bohol","lat":9.85693,"lng":124.03964},{"id":"catmon-cebu","name":"Catmon","label":"Municipality, Cebu","lat":10.6715,"lng":123.98159},{"id":"catubig-northern-samar","name":"Catubig","label":"Municipality, Northern Samar","lat":12.3943,"lng":125.08353},{"id":"cauayan-negros-occidental","name":"Cauayan","label":"Municipality, Negros Occidental","lat":9.91374,"lng":122.54396},{"id":"cauayan-city-isabela","name":"Cauayan City","label":"City, Isabela","lat":16.90785,"lng":121.76334},{"id":"cavinti-laguna","name":"Cavinti","label":"Municipality, Laguna","lat":14.24685,"lng":121.55534},{"id":"cavite-city-cavite","name":"Cavite City","label":"City, Cavite","lat":14.45264,"lng":120.88154},{"id":"cawayan-masbate","name":"Cawayan","label":"Municipality, Masbate","lat":12.02585,"lng":123.72946},{"id":"cebu-city-cebu","name":"Cebu City","label":"City, Cebu","lat":10.37778,"lng":123.84789},{"id":"cervantes-ilocos-sur","name":"Cervantes","label":"Municipality, Ilocos Sur","lat":16.99374,"lng":120.7055},{"id":"clarin-bohol","name":"Clarin","label":"Municipality, Bohol","lat":9.92943,"lng":124.04034},{"id":"clarin-misamis-occidental","name":"Clarin","label":"Municipality, Misamis Occidental","lat":8.19947,"lng":123.76566},{"id":"claver-surigao-del-norte","name":"Claver","label":"Municipality, Surigao del Norte","lat":9.45454,"lng":125.79369},{"id":"claveria-cagayan","name":"Claveria","label":"Municipality, Cagayan","lat":18.54813,"lng":121.10014},{"id":"claveria-masbate","name":"Claveria","label":"Municipality, Masbate","lat":12.91459,"lng":123.18194},{"id":"claveria-misamis-oriental","name":"Claveria","label":"Municipality, Misamis Oriental","lat":8.72007,"lng":125.02286},{"id":"columbio-sultan-kudarat","name":"Columbio","label":"Municipality, Sultan Kudarat","lat":6.64563,"lng":125.04628},{"id":"compostela-cebu","name":"Compostela","label":"Municipality, Cebu","lat":10.46884,"lng":123.95493},{"id":"compostela-compostela-valley","name":"Compostela","label":"Municipality, Compostela Valley","lat":7.69845,"lng":126.13515},{"id":"concepcion-iloilo","name":"Concepcion","label":"Municipality, Iloilo","lat":11.19714,"lng":123.09846},{"id":"concepcion-misamis-occidental","name":"Concepcion","label":"Municipality, Misamis Occidental","lat":8.41875,"lng":123.59856},{"id":"concepcion-tarlac","name":"Concepcion","label":"Municipality, Tarlac","lat":15.34095,"lng":120.6712},{"id":"consolacion-cebu","name":"Consolacion","label":"Municipality, Cebu","lat":10.40553,"lng":123.95463},{"id":"corella-bohol","name":"Corella","label":"Municipality, Bohol","lat":9.68961,"lng":123.92877},{"id":"coron-palawan","name":"Coron","label":"Municipality, Palawan","lat":12.02867,"lng":120.16413},{"id":"cortes-bohol","name":"Cortes","label":"Municipality, Bohol","lat":9.72049,"lng":123.90025},{"id":"cortes-surigao-del-sur","name":"Cortes","label":"Municipality, Surigao del Sur","lat":9.22359,"lng":126.13638},{"id":"cuartero-capiz","name":"Cuartero","label":"Municipality, Capiz","lat":11.31066,"lng":122.77536},{"id":"cuenca-batangas","name":"Cuenca","label":"Municipality, Batangas","lat":13.90507,"lng":121.05344},{"id":"culaba-biliran","name":"Culaba","label":"Municipality, Biliran","lat":11.6359,"lng":124.50278},{"id":"culasi-antique","name":"Culasi","label":"Municipality, Antique","lat":11.43133,"lng":122.12115},{"id":"culion-palawan","name":"Culion","label":"Municipality, Palawan","lat":12.00084,"lng":119.96563},{"id":"currimao-ilocos-norte","name":"Currimao","label":"Municipality, Ilocos Norte","lat":18.0221,"lng":120.50198},{"id":"cuyapo-nueva-ecija","name":"Cuyapo","label":"Municipality, Nueva Ecija","lat":15.76651,"lng":120.7078},{"id":"daanbantayan-cebu","name":"Daanbantayan","label":"Municipality, Cebu","lat":11.20257,"lng":124.01579},{"id":"daet-camarines-norte","name":"Daet","label":"Municipality, Camarines Norte","lat":14.11171,"lng":122.94878},{"id":"dagami-leyte","name":"Dagami","label":"Municipality, Leyte","lat":11.05777,"lng":124.8586},{"id":"dagohoy-bohol","name":"Dagohoy","label":"Municipality, Bohol","lat":9.90526,"lng":124.27788},{"id":"daguioman-abra","name":"Daguioman","label":"Municipality, Abra","lat":17.45168,"lng":120.94133},{"id":"dagupan-city-pangasinan","name":"Dagupan City","label":"City, Pangasinan","lat":16.06674,"lng":120.3432},{"id":"dalaguete-cebu","name":"Dalaguete","label":"Municipality, Cebu","lat":9.80573,"lng":123.49497},{"id":"damulog-bukidnon","name":"Damulog","label":"Municipality, Bukidnon","lat":7.46777,"lng":124.97092},{"id":"danao-bohol","name":"Danao","label":"Municipality, Bohol","lat":9.96944,"lng":124.21807},{"id":"danao-city-cebu","name":"Danao City","label":"City, Cebu","lat":10.53055,"lng":123.94141},{"id":"dangcagan-bukidnon","name":"Dangcagan","label":"Municipality, Bukidnon","lat":7.57846,"lng":124.99755},{"id":"danglas-abra","name":"Danglas","label":"Municipality, Abra","lat":17.75206,"lng":120.61634},{"id":"dao-capiz","name":"Dao","label":"Municipality, Capiz","lat":11.38477,"lng":122.70615},{"id":"dapa-surigao-del-norte","name":"Dapa","label":"Municipality, Surigao del Norte","lat":9.79744,"lng":126.06308},{"id":"dapitan-city-zamboanga-del-norte","name":"Dapitan City","label":"City, Zamboanga del Norte","lat":8.55541,"lng":123.42913},{"id":"daraga-albay","name":"Daraga","label":"Municipality, Albay","lat":13.1383,"lng":123.6764},{"id":"dasmari-as-cavite","name":"Dasmariñas","label":"Municipality, Cavite","lat":14.31687,"lng":120.96469},{"id":"dasol-pangasinan","name":"Dasol","label":"Municipality, Pangasinan","lat":15.94523,"lng":119.88571},{"id":"datu-abdullah-sanki-maguindanao","name":"Datu Abdullah Sanki","label":"Municipality, Maguindanao","lat":6.81266,"lng":124.53231},{"id":"datu-anggal-midtimbang-maguindanao","name":"Datu Anggal Midtimbang","label":"Municipality, Maguindanao","lat":7.00243,"lng":124.35819},{"id":"datu-blah-t-sinsuat-shariff-kabunsuan","name":"Datu Blah T. Sinsuat","label":"Municipality, Shariff Kabunsuan","lat":6.99941,"lng":124.03485},{"id":"datu-odin-sinsuat-shariff-kabunsuan","name":"Datu Odin Sinsuat","label":"Municipality, Shariff Kabunsuan","lat":7.06488,"lng":124.21463},{"id":"datu-paglas-maguindanao","name":"Datu Paglas","label":"Municipality, Maguindanao","lat":6.71465,"lng":124.85104},{"id":"datu-piang-maguindanao","name":"Datu Piang","label":"Municipality, Maguindanao","lat":7.01571,"lng":124.47828},{"id":"datu-saudi-ampatuan-maguindanao","name":"Datu Saudi-Ampatuan","label":"Municipality, Maguindanao","lat":6.96648,"lng":124.46737},{"id":"datu-unsay-maguindanao","name":"Datu Unsay","label":"Municipality, Maguindanao","lat":6.89469,"lng":124.40061},{"id":"dauin-negros-oriental","name":"Dauin","label":"Municipality, Negros Oriental","lat":9.2017,"lng":123.21325},{"id":"davao-city-davao-del-sur","name":"Davao City","label":"City, Davao del Sur","lat":7.2635,"lng":125.45889},{"id":"del-carmen-surigao-del-norte","name":"Del Carmen","label":"Municipality, Surigao del Norte","lat":9.84793,"lng":125.99749},{"id":"del-gallego-camarines-sur","name":"Del Gallego","label":"Municipality, Camarines Sur","lat":13.94819,"lng":122.71192},{"id":"delfin-albano-isabela","name":"Delfin Albano","label":"Municipality, Isabela","lat":17.27575,"lng":121.75769},{"id":"diadi-nueva-vizcaya","name":"Diadi","label":"Municipality, Nueva Vizcaya","lat":16.57916,"lng":121.33838},{"id":"diffun-quirino","name":"Diffun","label":"Municipality, Quirino","lat":16.53476,"lng":121.49548},{"id":"digos-city-davao-del-sur","name":"Digos City","label":"City, Davao del Sur","lat":6.84634,"lng":125.31345},{"id":"dilasag-aurora","name":"Dilasag","label":"Municipality, Aurora","lat":16.43209,"lng":122.10543},{"id":"dimasalang-masbate","name":"Dimasalang","label":"Municipality, Masbate","lat":12.15171,"lng":123.84174},{"id":"dimataling-zamboanga-del-sur","name":"Dimataling","label":"Municipality, Zamboanga del Sur","lat":7.53008,"lng":123.31749},{"id":"dimiao-bohol","name":"Dimiao","label":"Municipality, Bohol","lat":9.65667,"lng":124.14927},{"id":"dinagat-dinagat-islands","name":"Dinagat","label":"Municipality, Dinagat Islands","lat":9.98255,"lng":125.61222},{"id":"dinalungan-aurora","name":"Dinalungan","label":"Municipality, Aurora","lat":16.16759,"lng":121.86213},{"id":"dinalupihan-bataan","name":"Dinalupihan","label":"Municipality, Bataan","lat":14.85971,"lng":120.42267},{"id":"dinapigue-isabela","name":"Dinapigue","label":"Municipality, Isabela","lat":16.6691,"lng":122.23995},{"id":"dinas-zamboanga-del-sur","name":"Dinas","label":"Municipality, Zamboanga del Sur","lat":7.63287,"lng":123.34274},{"id":"dingalan-aurora","name":"Dingalan","label":"Municipality, Aurora","lat":15.33755,"lng":121.39682},{"id":"dingle-iloilo","name":"Dingle","label":"Municipality, Iloilo","lat":11.00647,"lng":122.6641},{"id":"dingras-ilocos-norte","name":"Dingras","label":"Municipality, Ilocos Norte","lat":18.07683,"lng":120.74429},{"id":"dipaculao-aurora","name":"Dipaculao","label":"Municipality, Aurora","lat":15.97852,"lng":121.62694},{"id":"diplahan-zamboanga-sibugay","name":"Diplahan","label":"Municipality, Zamboanga Sibugay","lat":7.74676,"lng":122.96114},{"id":"dipolog-city-zamboanga-del-norte","name":"Dipolog City","label":"City, Zamboanga del Norte","lat":8.48133,"lng":123.355},{"id":"ditsaan-ramain-lanao-del-sur","name":"Ditsaan-Ramain","label":"Municipality, Lanao del Sur","lat":7.99897,"lng":124.33445},{"id":"divilacan-isabela","name":"Divilacan","label":"Municipality, Isabela","lat":17.28072,"lng":122.18108},{"id":"dolores-abra","name":"Dolores","label":"Municipality, Abra","lat":17.6559,"lng":120.72163},{"id":"dolores-eastern-samar","name":"Dolores","label":"Municipality, Eastern Samar","lat":12.0811,"lng":125.34904},{"id":"dolores-quezon","name":"Dolores","label":"Municipality, Quezon","lat":14.01856,"lng":121.3902},{"id":"don-carlos-bukidnon","name":"Don Carlos","label":"Municipality, Bukidnon","lat":7.71039,"lng":124.95356},{"id":"don-marcelino-davao-del-sur","name":"Don Marcelino","label":"Municipality, Davao del Sur","lat":6.16717,"lng":125.61554},{"id":"don-victoriano-chiongbian-misamis-occidental","name":"Don Victoriano Chiongbian","label":"Municipality, Misamis Occidental","lat":8.2635,"lng":123.60943},{"id":"donsol-sorsogon","name":"Donsol","label":"Municipality, Sorsogon","lat":12.96439,"lng":123.56161},{"id":"do-a-remedios-trinidad-bulacan","name":"Doña Remedios Trinidad","label":"Municipality, Bulacan","lat":15.08744,"lng":121.21052},{"id":"duenas-iloilo","name":"Duenas","label":"Municipality, Iloilo","lat":11.05237,"lng":122.59956},{"id":"duero-bohol","name":"Duero","label":"Municipality, Bohol","lat":9.74084,"lng":124.38345},{"id":"dulag-leyte","name":"Dulag","label":"Municipality, Leyte","lat":10.96467,"lng":125.00671},{"id":"dumaguete-city-negros-oriental","name":"Dumaguete City","label":"City, Negros Oriental","lat":9.29892,"lng":123.28244},{"id":"dumalag-capiz","name":"Dumalag","label":"Municipality, Capiz","lat":11.30812,"lng":122.62187},{"id":"dumalinao-zamboanga-del-sur","name":"Dumalinao","label":"Municipality, Zamboanga del Sur","lat":7.77672,"lng":123.39153},{"id":"dumalneg-ilocos-norte","name":"Dumalneg","label":"Municipality, Ilocos Norte","lat":18.47359,"lng":120.83834},{"id":"dumangas-iloilo","name":"Dumangas","label":"Municipality, Iloilo","lat":10.82688,"lng":122.71682},{"id":"dumanjug-cebu","name":"Dumanjug","label":"Municipality, Cebu","lat":10.04326,"lng":123.47128},{"id":"dumaran-palawan","name":"Dumaran","label":"Municipality, Palawan","lat":10.48292,"lng":119.69086},{"id":"dumarao-capiz","name":"Dumarao","label":"Municipality, Capiz","lat":11.25113,"lng":122.76923},{"id":"dumingag-zamboanga-del-sur","name":"Dumingag","label":"Municipality, Zamboanga del Sur","lat":8.16253,"lng":123.28951},{"id":"dupax-del-norte-nueva-vizcaya","name":"Dupax Del Norte","label":"Municipality, Nueva Vizcaya","lat":16.1792,"lng":121.19991},{"id":"dupax-del-sur-nueva-vizcaya","name":"Dupax Del Sur","label":"Municipality, Nueva Vizcaya","lat":16.0919,"lng":121.16461},{"id":"echague-isabela","name":"Echague","label":"Municipality, Isabela","lat":16.64639,"lng":121.87023},{"id":"el-nido-palawan","name":"El Nido","label":"Municipality, Palawan","lat":11.16381,"lng":119.47046},{"id":"el-salvador-city-misamis-oriental","name":"El Salvador City","label":"City, Misamis Oriental","lat":8.48211,"lng":124.48814},{"id":"enrile-cagayan","name":"Enrile","label":"Municipality, Cagayan","lat":17.55924,"lng":121.70504},{"id":"enrique-b-magalona-negros-occidental","name":"Enrique B. Magalona","label":"Municipality, Negros Occidental","lat":10.80762,"lng":123.07244},{"id":"enrique-villanueva-siquijor","name":"Enrique Villanueva","label":"Municipality, Siquijor","lat":9.25693,"lng":123.63303},{"id":"escalante-city-negros-occidental","name":"Escalante City","label":"City, Negros Occidental","lat":10.81476,"lng":123.4392},{"id":"esperanza-agusan-del-sur","name":"Esperanza","label":"Municipality, Agusan del Sur","lat":8.6254,"lng":125.53182},{"id":"esperanza-masbate","name":"Esperanza","label":"Municipality, Masbate","lat":11.80584,"lng":124.0088},{"id":"esperanza-sultan-kudarat","name":"Esperanza","label":"Municipality, Sultan Kudarat","lat":6.71936,"lng":124.43627},{"id":"estancia-iloilo","name":"Estancia","label":"Municipality, Iloilo","lat":11.44749,"lng":123.11879},{"id":"famy-laguna","name":"Famy","label":"Municipality, Laguna","lat":14.45253,"lng":121.48045},{"id":"ferrol-romblon","name":"Ferrol","label":"Municipality, Romblon","lat":12.34293,"lng":121.96042},{"id":"flora-apayao","name":"Flora","label":"Municipality, Apayao","lat":18.1112,"lng":121.40848},{"id":"floridablanca-pampanga","name":"Floridablanca","label":"Municipality, Pampanga","lat":14.97826,"lng":120.49484},{"id":"gabaldon-nueva-ecija","name":"Gabaldon","label":"Municipality, Nueva Ecija","lat":15.52694,"lng":121.29723},{"id":"gainza-camarines-sur","name":"Gainza","label":"Municipality, Camarines Sur","lat":13.60493,"lng":123.13671},{"id":"galimuyod-ilocos-sur","name":"Galimuyod","label":"Municipality, Ilocos Sur","lat":17.18128,"lng":120.54785},{"id":"gamay-northern-samar","name":"Gamay","label":"Municipality, Northern Samar","lat":12.4078,"lng":125.25336},{"id":"gamu-isabela","name":"Gamu","label":"Municipality, Isabela","lat":17.07524,"lng":121.81823},{"id":"ganassi-lanao-del-sur","name":"Ganassi","label":"Municipality, Lanao del Sur","lat":7.81515,"lng":124.09911},{"id":"gandara-samar","name":"Gandara","label":"Municipality, Samar","lat":12.05834,"lng":124.83184},{"id":"gapan-city-nueva-ecija","name":"Gapan City","label":"City, Nueva Ecija","lat":15.29212,"lng":121.03173},{"id":"garchitorena-camarines-sur","name":"Garchitorena","label":"Municipality, Camarines Sur","lat":13.84267,"lng":123.66774},{"id":"garcia-hernandez-bohol","name":"Garcia Hernandez","label":"Municipality, Bohol","lat":9.66896,"lng":124.28886},{"id":"gasan-marinduque","name":"Gasan","label":"Municipality, Marinduque","lat":13.32499,"lng":121.89437},{"id":"gattaran-cagayan","name":"Gattaran","label":"Municipality, Cagayan","lat":18.03919,"lng":121.89318},{"id":"gen-s-k-pendatun-maguindanao","name":"Gen. S. K. Pendatun","label":"Municipality, Maguindanao","lat":6.84045,"lng":124.75507},{"id":"general-emilio-aguinaldo-cavite","name":"General Emilio Aguinaldo","label":"Municipality, Cavite","lat":14.17162,"lng":120.80445},{"id":"general-luna-quezon","name":"General Luna","label":"Municipality, Quezon","lat":13.69756,"lng":122.22536},{"id":"general-luna-surigao-del-norte","name":"General Luna","label":"Municipality, Surigao del Norte","lat":9.7961,"lng":126.11556},{"id":"general-macarthur-eastern-samar","name":"General Macarthur","label":"Municipality, Eastern Samar","lat":11.26709,"lng":125.49873},{"id":"general-mamerto-natividad-nueva-ecija","name":"General Mamerto Natividad","label":"Municipality, Nueva Ecija","lat":15.58504,"lng":121.04902},{"id":"general-mariano-alvarez-cavite","name":"General Mariano Alvarez","label":"Municipality, Cavite","lat":14.30364,"lng":121.02305},{"id":"general-nakar-quezon","name":"General Nakar","label":"Municipality, Quezon","lat":14.89377,"lng":121.49534},{"id":"general-santos-city-south-cotabato","name":"General Santos City","label":"City, South Cotabato","lat":6.18381,"lng":125.14564},{"id":"general-tinio-nueva-ecija","name":"General Tinio","label":"Municipality, Nueva Ecija","lat":15.32435,"lng":121.21284},{"id":"general-trias-cavite","name":"General Trias","label":"Municipality, Cavite","lat":14.32846,"lng":120.89805},{"id":"gerona-tarlac","name":"Gerona","label":"Municipality, Tarlac","lat":15.60086,"lng":120.5615},{"id":"gigaquit-surigao-del-norte","name":"Gigaquit","label":"Municipality, Surigao del Norte","lat":9.49737,"lng":125.6839},{"id":"gigmoto-catanduanes","name":"Gigmoto","label":"Municipality, Catanduanes","lat":13.791,"lng":124.33998},{"id":"ginatilan-cebu","name":"Ginatilan","label":"Municipality, Cebu","lat":9.58791,"lng":123.35042},{"id":"gingoog-city-misamis-oriental","name":"Gingoog City","label":"City, Misamis Oriental","lat":8.7813,"lng":125.08715},{"id":"giporlos-eastern-samar","name":"Giporlos","label":"Municipality, Eastern Samar","lat":11.13578,"lng":125.46699},{"id":"gitagum-misamis-oriental","name":"Gitagum","label":"Municipality, Misamis Oriental","lat":8.55699,"lng":124.39472},{"id":"glan-sarangani","name":"Glan","label":"Municipality, Sarangani","lat":5.8032,"lng":125.32969},{"id":"gloria-oriental-mindoro","name":"Gloria","label":"Municipality, Oriental Mindoro","lat":12.92652,"lng":121.36528},{"id":"goa-camarines-sur","name":"Goa","label":"Municipality, Camarines Sur","lat":13.7582,"lng":123.44161},{"id":"godod-zamboanga-del-norte","name":"Godod","label":"Municipality, Zamboanga del Norte","lat":7.97578,"lng":122.82081},{"id":"gonzaga-cagayan","name":"Gonzaga","label":"Municipality, Cagayan","lat":18.27184,"lng":122.10454},{"id":"governor-generoso-davao-oriental","name":"Governor Generoso","label":"Municipality, Davao Oriental","lat":6.47811,"lng":126.14239},{"id":"gregorio-del-pilar-ilocos-sur","name":"Gregorio Del Pilar","label":"Municipality, Ilocos Sur","lat":17.13571,"lng":120.60414},{"id":"guagua-pampanga","name":"Guagua","label":"Municipality, Pampanga","lat":14.95827,"lng":120.62215},{"id":"gubat-sorsogon","name":"Gubat","label":"Municipality, Sorsogon","lat":12.91881,"lng":124.11333},{"id":"guiguinto-bulacan","name":"Guiguinto","label":"Municipality, Bulacan","lat":14.83549,"lng":120.8921},{"id":"guihulngan-city-negros-oriental","name":"Guihulngan City","label":"City, Negros Oriental","lat":10.17687,"lng":123.21043},{"id":"guimba-nueva-ecija","name":"Guimba","label":"Municipality, Nueva Ecija","lat":15.67246,"lng":120.75267},{"id":"guimbal-iloilo","name":"Guimbal","label":"Municipality, Iloilo","lat":10.70268,"lng":122.31227},{"id":"guinayangan-quezon","name":"Guinayangan","label":"Municipality, Quezon","lat":13.94053,"lng":122.42906},{"id":"guindulman-bohol","name":"Guindulman","label":"Municipality, Bohol","lat":9.77431,"lng":124.45891},{"id":"guindulungan-maguindanao","name":"Guindulungan","label":"Municipality, Maguindanao","lat":6.93894,"lng":124.34935},{"id":"guinobatan-albay","name":"Guinobatan","label":"Municipality, Albay","lat":13.17543,"lng":123.58262},{"id":"guinsiliban-camiguin","name":"Guinsiliban","label":"Municipality, Camiguin","lat":9.12485,"lng":124.77066},{"id":"guipos-zamboanga-del-sur","name":"Guipos","label":"Municipality, Zamboanga del Sur","lat":7.7496,"lng":123.31628},{"id":"gumaca-quezon","name":"Gumaca","label":"Municipality, Quezon","lat":13.87473,"lng":122.1167},{"id":"gutalac-zamboanga-del-norte","name":"Gutalac","label":"Municipality, Zamboanga del Norte","lat":7.92013,"lng":122.34925},{"id":"hadji-mohammad-ajul-basilan","name":"Hadji Mohammad Ajul","label":"Municipality, Basilan","lat":6.62828,"lng":122.25343},{"id":"hagonoy-bulacan","name":"Hagonoy","label":"Municipality, Bulacan","lat":14.80928,"lng":120.74511},{"id":"hagonoy-davao-del-sur","name":"Hagonoy","label":"Municipality, Davao del Sur","lat":6.69835,"lng":125.31467},{"id":"hamtic-antique","name":"Hamtic","label":"Municipality, Antique","lat":10.65951,"lng":122.02012},{"id":"hermosa-bataan","name":"Hermosa","label":"Municipality, Bataan","lat":14.81233,"lng":120.45382},{"id":"hernani-eastern-samar","name":"Hernani","label":"Municipality, Eastern Samar","lat":11.32751,"lng":125.57427},{"id":"hilongos-leyte","name":"Hilongos","label":"Municipality, Leyte","lat":10.39777,"lng":124.82238},{"id":"himamaylan-city-negros-occidental","name":"Himamaylan City","label":"City, Negros Occidental","lat":10.0558,"lng":122.92184},{"id":"hinabangan-samar","name":"Hinabangan","label":"Municipality, Samar","lat":11.74321,"lng":125.1584},{"id":"hinatuan-surigao-del-sur","name":"Hinatuan","label":"Municipality, Surigao del Sur","lat":8.41691,"lng":126.33467},{"id":"hindang-leyte","name":"Hindang","label":"Municipality, Leyte","lat":10.44415,"lng":124.82478},{"id":"hingyon-ifugao","name":"Hingyon","label":"Municipality, Ifugao","lat":16.84421,"lng":121.08697},{"id":"hinigaran-negros-occidental","name":"Hinigaran","label":"Municipality, Negros Occidental","lat":10.271,"lng":122.91825},{"id":"hinoba-an-negros-occidental","name":"Hinoba-An","label":"Municipality, Negros Occidental","lat":9.54342,"lng":122.57055},{"id":"hinunangan-southern-leyte","name":"Hinunangan","label":"Municipality, Southern Leyte","lat":10.38003,"lng":125.14882},{"id":"hinundayan-southern-leyte","name":"Hinundayan","label":"Municipality, Southern Leyte","lat":10.34385,"lng":125.21375},{"id":"hungduan-ifugao","name":"Hungduan","label":"Municipality, Ifugao","lat":16.8816,"lng":120.98385},{"id":"iba-zambales","name":"Iba","label":"Municipality, Zambales","lat":15.36522,"lng":120.05509},{"id":"ibaan-batangas","name":"Ibaan","label":"Municipality, Batangas","lat":13.81711,"lng":121.13871},{"id":"ibajay-aklan","name":"Ibajay","label":"Municipality, Aklan","lat":11.73846,"lng":122.16236},{"id":"igbaras-iloilo","name":"Igbaras","label":"Municipality, Iloilo","lat":10.75518,"lng":122.23748},{"id":"iguig-cagayan","name":"Iguig","label":"Municipality, Cagayan","lat":17.74287,"lng":121.7446},{"id":"ilagan-isabela","name":"Ilagan","label":"Municipality, Isabela","lat":17.1706,"lng":122.09585},{"id":"iligan-city-lanao-del-norte","name":"Iligan City","label":"City, Lanao del Norte","lat":8.22684,"lng":124.36246},{"id":"ilog-negros-occidental","name":"Ilog","label":"Municipality, Negros Occidental","lat":9.80804,"lng":122.74685},{"id":"iloilo-city-iloilo","name":"Iloilo City","label":"City, Iloilo","lat":10.7327,"lng":122.54486},{"id":"imelda-zamboanga-sibugay","name":"Imelda","label":"Municipality, Zamboanga Sibugay","lat":7.62658,"lng":122.94198},{"id":"impasug-ong-bukidnon","name":"Impasug-Ong","label":"Municipality, Bukidnon","lat":8.39134,"lng":125.12204},{"id":"imus-cavite","name":"Imus","label":"Municipality, Cavite","lat":14.39921,"lng":120.92889},{"id":"inabanga-bohol","name":"Inabanga","label":"Municipality, Bohol","lat":10.007,"lng":124.0895},{"id":"indanan-sulu","name":"Indanan","label":"Municipality, Sulu","lat":5.99316,"lng":120.96483},{"id":"indang-cavite","name":"Indang","label":"Municipality, Cavite","lat":14.18269,"lng":120.87185},{"id":"infanta-pangasinan","name":"Infanta","label":"Municipality, Pangasinan","lat":15.86214,"lng":120.0274},{"id":"infanta-quezon","name":"Infanta","label":"Municipality, Quezon","lat":14.72934,"lng":121.61292},{"id":"initao-misamis-oriental","name":"Initao","label":"Municipality, Misamis Oriental","lat":8.4964,"lng":124.33818},{"id":"inopacan-leyte","name":"Inopacan","label":"Municipality, Leyte","lat":10.52651,"lng":124.83383},{"id":"ipil-zamboanga-sibugay","name":"Ipil","label":"Municipality, Zamboanga Sibugay","lat":7.77464,"lng":122.5733},{"id":"iriga-city-camarines-sur","name":"Iriga City","label":"City, Camarines Sur","lat":13.4477,"lng":123.43718},{"id":"irosin-sorsogon","name":"Irosin","label":"Municipality, Sorsogon","lat":12.71869,"lng":124.03205},{"id":"isabel-leyte","name":"Isabel","label":"Municipality, Leyte","lat":10.95079,"lng":124.45074},{"id":"isabela-negros-occidental","name":"Isabela","label":"Municipality, Negros Occidental","lat":10.21496,"lng":123.03383},{"id":"isabela-city-basilan","name":"Isabela City","label":"City, Basilan","lat":6.66014,"lng":121.99055},{"id":"isulan-sultan-kudarat","name":"Isulan","label":"Municipality, Sultan Kudarat","lat":6.61245,"lng":124.46283},{"id":"itbayat-batanes","name":"Itbayat","label":"Municipality, Batanes","lat":20.76136,"lng":121.82903},{"id":"itogon-benguet","name":"Itogon","label":"Municipality, Benguet","lat":16.33801,"lng":120.71595},{"id":"ivana-batanes","name":"Ivana","label":"Municipality, Batanes","lat":20.37805,"lng":121.93519},{"id":"ivisan-capiz","name":"Ivisan","label":"Municipality, Capiz","lat":11.51353,"lng":122.68238},{"id":"jabonga-agusan-del-norte","name":"Jabonga","label":"Municipality, Agusan del Norte","lat":9.34197,"lng":125.62022},{"id":"jaen-nueva-ecija","name":"Jaen","label":"Municipality, Nueva Ecija","lat":15.37693,"lng":120.87428},{"id":"jagna-bohol","name":"Jagna","label":"Municipality, Bohol","lat":9.69713,"lng":124.34167},{"id":"jamindan-capiz","name":"Jamindan","label":"Municipality, Capiz","lat":11.35578,"lng":122.40002},{"id":"janiuay-iloilo","name":"Janiuay","label":"Municipality, Iloilo","lat":10.99072,"lng":122.43416},{"id":"jaro-leyte","name":"Jaro","label":"Municipality, Leyte","lat":11.17437,"lng":124.75774},{"id":"jasaan-misamis-oriental","name":"Jasaan","label":"Municipality, Misamis Oriental","lat":8.64873,"lng":124.78551},{"id":"javier-leyte","name":"Javier","label":"Municipality, Leyte","lat":10.74937,"lng":124.9269},{"id":"jetafe-bohol","name":"Jetafe","label":"Municipality, Bohol","lat":10.10929,"lng":124.18047},{"id":"jiabong-samar","name":"Jiabong","label":"Municipality, Samar","lat":11.85427,"lng":124.96962},{"id":"jimalalud-negros-oriental","name":"Jimalalud","label":"Municipality, Negros Oriental","lat":10.01266,"lng":123.13029},{"id":"jimenez-misamis-occidental","name":"Jimenez","label":"Municipality, Misamis Occidental","lat":8.32133,"lng":123.7572},{"id":"jipapad-eastern-samar","name":"Jipapad","label":"Municipality, Eastern Samar","lat":12.26523,"lng":125.21951},{"id":"jolo-sulu","name":"Jolo","label":"Municipality, Sulu","lat":6.05379,"lng":120.99889},{"id":"jones-isabela","name":"Jones","label":"Municipality, Isabela","lat":16.52698,"lng":121.7768},{"id":"jordan-guimaras","name":"Jordan","label":"Municipality, Guimaras","lat":10.61371,"lng":122.57903},{"id":"jose-abad-santos-davao-del-sur","name":"Jose Abad Santos","label":"Municipality, Davao del Sur","lat":5.86916,"lng":125.59357},{"id":"jose-dalman-zamboanga-del-norte","name":"Jose Dalman","label":"Municipality, Zamboanga del Norte","lat":8.39541,"lng":123.07529},{"id":"jose-panganiban-camarines-norte","name":"Jose Panganiban","label":"Municipality, Camarines Norte","lat":14.26148,"lng":122.65799},{"id":"josefina-zamboanga-del-sur","name":"Josefina","label":"Municipality, Zamboanga del Sur","lat":8.17883,"lng":123.53148},{"id":"jovellar-albay","name":"Jovellar","label":"Municipality, Albay","lat":13.04469,"lng":123.57714},{"id":"juban-sorsogon","name":"Juban","label":"Municipality, Sorsogon","lat":12.79937,"lng":123.97998},{"id":"julita-leyte","name":"Julita","label":"Municipality, Leyte","lat":10.97891,"lng":124.96498},{"id":"kabacan-north-cotabato","name":"Kabacan","label":"Municipality, North Cotabato","lat":7.12659,"lng":124.78519},{"id":"kabankalan-city-negros-occidental","name":"Kabankalan City","label":"City, Negros Occidental","lat":9.82632,"lng":122.86408},{"id":"kabasalan-zamboanga-sibugay","name":"Kabasalan","label":"Municipality, Zamboanga Sibugay","lat":7.84865,"lng":122.81933},{"id":"kabayan-benguet","name":"Kabayan","label":"Municipality, Benguet","lat":16.62461,"lng":120.82745},{"id":"kabugao-apayao","name":"Kabugao","label":"Municipality, Apayao","lat":18.02765,"lng":121.15231},{"id":"kabuntalan-shariff-kabunsuan","name":"Kabuntalan","label":"Municipality, Shariff Kabunsuan","lat":7.12207,"lng":124.37165},{"id":"kadingilan-bukidnon","name":"Kadingilan","label":"Municipality, Bukidnon","lat":7.53249,"lng":124.8853},{"id":"kalamansig-sultan-kudarat","name":"Kalamansig","label":"Municipality, Sultan Kudarat","lat":6.51169,"lng":124.16407},{"id":"kalawit-zamboanga-del-norte","name":"Kalawit","label":"Municipality, Zamboanga del Norte","lat":7.91393,"lng":122.52311},{"id":"kalayaan-laguna","name":"Kalayaan","label":"Municipality, Laguna","lat":14.33889,"lng":121.54707},{"id":"kalibo-aklan","name":"Kalibo","label":"Municipality, Aklan","lat":11.66713,"lng":122.37747},{"id":"kalilangan-bukidnon","name":"Kalilangan","label":"Municipality, Bukidnon","lat":7.78114,"lng":124.69886},{"id":"kalingalan-caluang-sulu","name":"Kalingalan Caluang","label":"Municipality, Sulu","lat":5.92108,"lng":121.28885},{"id":"kalookan-city-metropolitan-manila","name":"Kalookan City","label":"City, Metropolitan Manila","lat":14.70708,"lng":121.03391},{"id":"kananga-leyte","name":"Kananga","label":"Municipality, Leyte","lat":11.16974,"lng":124.57117},{"id":"kapai-lanao-del-sur","name":"Kapai","label":"Municipality, Lanao del Sur","lat":8.11892,"lng":124.33734},{"id":"kapalong-davao-del-norte","name":"Kapalong","label":"Municipality, Davao del Norte","lat":7.77983,"lng":125.5534},{"id":"kapangan-benguet","name":"Kapangan","label":"Municipality, Benguet","lat":16.61202,"lng":120.59575},{"id":"kapatagan-lanao-del-norte","name":"Kapatagan","label":"Municipality, Lanao del Norte","lat":7.8766,"lng":123.72557},{"id":"kapatagan-lanao-del-sur","name":"Kapatagan","label":"Municipality, Lanao del Sur","lat":7.48205,"lng":124.17989},{"id":"kasibu-nueva-vizcaya","name":"Kasibu","label":"Municipality, Nueva Vizcaya","lat":16.36598,"lng":121.28038},{"id":"katipunan-zamboanga-del-norte","name":"Katipunan","label":"Municipality, Zamboanga del Norte","lat":8.42766,"lng":123.26557},{"id":"kauswagan-lanao-del-norte","name":"Kauswagan","label":"Municipality, Lanao del Norte","lat":8.16524,"lng":124.09763},{"id":"kawayan-biliran","name":"Kawayan","label":"Municipality, Biliran","lat":11.67925,"lng":124.43181},{"id":"kawit-cavite","name":"Kawit","label":"Municipality, Cavite","lat":14.44085,"lng":120.90443},{"id":"kayapa-nueva-vizcaya","name":"Kayapa","label":"Municipality, Nueva Vizcaya","lat":16.42182,"lng":120.89642},{"id":"kiamba-sarangani","name":"Kiamba","label":"Municipality, Sarangani","lat":5.99344,"lng":124.69573},{"id":"kiangan-ifugao","name":"Kiangan","label":"Municipality, Ifugao","lat":16.77079,"lng":121.09653},{"id":"kibawe-bukidnon","name":"Kibawe","label":"Municipality, Bukidnon","lat":7.52653,"lng":125.04676},{"id":"kiblawan-davao-del-sur","name":"Kiblawan","label":"Municipality, Davao del Sur","lat":6.6313,"lng":125.21565},{"id":"kibungan-benguet","name":"Kibungan","label":"Municipality, Benguet","lat":16.68363,"lng":120.68637},{"id":"kidapawan-city-north-cotabato","name":"Kidapawan City","label":"City, North Cotabato","lat":7.0431,"lng":125.09808},{"id":"kinoguitan-misamis-oriental","name":"Kinoguitan","label":"Municipality, Misamis Oriental","lat":8.95871,"lng":124.8203},{"id":"kitaotao-bukidnon","name":"Kitaotao","label":"Municipality, Bukidnon","lat":7.58991,"lng":125.07366},{"id":"kolambugan-lanao-del-norte","name":"Kolambugan","label":"Municipality, Lanao del Norte","lat":8.09135,"lng":123.8828},{"id":"koronadal-city-south-cotabato","name":"Koronadal City","label":"City, South Cotabato","lat":6.44886,"lng":124.89576},{"id":"kumalarang-zamboanga-del-sur","name":"Kumalarang","label":"Municipality, Zamboanga del Sur","lat":7.76271,"lng":123.14141},{"id":"la-carlota-city-negros-occidental","name":"La Carlota City","label":"City, Negros Occidental","lat":10.41433,"lng":123.01326},{"id":"la-castellana-negros-occidental","name":"La Castellana","label":"Municipality, Negros Occidental","lat":10.34167,"lng":123.06168},{"id":"la-libertad-negros-oriental","name":"La Libertad","label":"Municipality, Negros Oriental","lat":10.06145,"lng":123.15809},{"id":"la-libertad-zamboanga-del-norte","name":"La Libertad","label":"Municipality, Zamboanga del Norte","lat":8.4763,"lng":123.52472},{"id":"la-paz-abra","name":"La Paz","label":"Municipality, Abra","lat":17.66738,"lng":120.65416},{"id":"la-paz-agusan-del-sur","name":"La Paz","label":"Municipality, Agusan del Sur","lat":8.3136,"lng":125.58578},{"id":"la-paz-leyte","name":"La Paz","label":"Municipality, Leyte","lat":10.88156,"lng":124.89513},{"id":"la-paz-tarlac","name":"La Paz","label":"Municipality, Tarlac","lat":15.44628,"lng":120.69772},{"id":"la-trinidad-benguet","name":"La Trinidad","label":"City, Benguet","lat":16.48322,"lng":120.60744},{"id":"labangan-zamboanga-del-sur","name":"Labangan","label":"Municipality, Zamboanga del Sur","lat":7.89409,"lng":123.40768},{"id":"labason-zamboanga-del-norte","name":"Labason","label":"Municipality, Zamboanga del Norte","lat":8.04022,"lng":122.53318},{"id":"labo-camarines-norte","name":"Labo","label":"Municipality, Camarines Norte","lat":14.11433,"lng":122.65819},{"id":"labrador-pangasinan","name":"Labrador","label":"Municipality, Pangasinan","lat":15.99011,"lng":120.14266},{"id":"lacub-abra","name":"Lacub","label":"Municipality, Abra","lat":17.69631,"lng":120.979},{"id":"lagangilang-abra","name":"Lagangilang","label":"Municipality, Abra","lat":17.64532,"lng":120.77846},{"id":"lagawe-ifugao","name":"Lagawe","label":"Municipality, Ifugao","lat":16.78058,"lng":121.21334},{"id":"lagayan-abra","name":"Lagayan","label":"Municipality, Abra","lat":17.78161,"lng":120.72843},{"id":"lagonglong-misamis-oriental","name":"Lagonglong","label":"Municipality, Misamis Oriental","lat":8.8121,"lng":124.81648},{"id":"lagonoy-camarines-sur","name":"Lagonoy","label":"Municipality, Camarines Sur","lat":13.84095,"lng":123.53214},{"id":"laguindingan-misamis-oriental","name":"Laguindingan","label":"Municipality, Misamis Oriental","lat":8.55938,"lng":124.44025},{"id":"lake-sebu-south-cotabato","name":"Lake Sebu","label":"Municipality, South Cotabato","lat":6.18326,"lng":124.69513},{"id":"lakewood-zamboanga-del-sur","name":"Lakewood","label":"Municipality, Zamboanga del Sur","lat":7.89382,"lng":123.17039},{"id":"lal-lo-cagayan","name":"Lal-Lo","label":"Municipality, Cagayan","lat":18.17519,"lng":121.90459},{"id":"lala-lanao-del-norte","name":"Lala","label":"Municipality, Lanao del Norte","lat":7.94823,"lng":123.76375},{"id":"lambayong-sultan-kudarat","name":"Lambayong","label":"Municipality, Sultan Kudarat","lat":6.72702,"lng":124.62103},{"id":"lambunao-iloilo","name":"Lambunao","label":"Municipality, Iloilo","lat":11.11629,"lng":122.40144},{"id":"lamitan-city-basilan","name":"Lamitan City","label":"City, Basilan","lat":6.64608,"lng":122.11917},{"id":"lamut-ifugao","name":"Lamut","label":"Municipality, Ifugao","lat":16.69111,"lng":121.21657},{"id":"langiden-abra","name":"Langiden","label":"Municipality, Abra","lat":17.6261,"lng":120.5438},{"id":"languyan-tawi-tawi","name":"Languyan","label":"Municipality, Tawi-Tawi","lat":5.24683,"lng":120.06425},{"id":"lantapan-bukidnon","name":"Lantapan","label":"Municipality, Bukidnon","lat":8.05549,"lng":124.98365},{"id":"lantawan-basilan","name":"Lantawan","label":"Municipality, Basilan","lat":6.62696,"lng":121.86103},{"id":"lanuza-surigao-del-sur","name":"Lanuza","label":"Municipality, Surigao del Sur","lat":9.17072,"lng":126.01216},{"id":"laoac-pangasinan","name":"Laoac","label":"Municipality, Pangasinan","lat":16.04723,"lng":120.55025},{"id":"laoag-city-ilocos-norte","name":"Laoag City","label":"City, Ilocos Norte","lat":18.20235,"lng":120.59745},{"id":"laoang-northern-samar","name":"Laoang","label":"Municipality, Northern Samar","lat":12.52114,"lng":125.02169},{"id":"lapu-lapu-city-cebu","name":"Lapu-Lapu City","label":"City, Cebu","lat":10.26662,"lng":123.97194},{"id":"lapuyan-zamboanga-del-sur","name":"Lapuyan","label":"Municipality, Zamboanga del Sur","lat":7.70132,"lng":123.20194},{"id":"larena-siquijor","name":"Larena","label":"Municipality, Siquijor","lat":9.23782,"lng":123.60181},{"id":"las-navas-northern-samar","name":"Las Navas","label":"Municipality, Northern Samar","lat":12.3061,"lng":125.03454},{"id":"las-nieves-agusan-del-norte","name":"Las Nieves","label":"Municipality, Agusan del Norte","lat":8.71884,"lng":125.44618},{"id":"las-pi-as-metropolitan-manila","name":"Las Piñas","label":"City, Metropolitan Manila","lat":14.43549,"lng":120.99412},{"id":"lasam-cagayan","name":"Lasam","label":"Municipality, Cagayan","lat":18.04766,"lng":121.54058},{"id":"laua-an-antique","name":"Laua-An","label":"Municipality, Antique","lat":11.15913,"lng":122.12025},{"id":"laur-nueva-ecija","name":"Laur","label":"Municipality, Nueva Ecija","lat":15.51333,"lng":121.1946},{"id":"laurel-batangas","name":"Laurel","label":"Municipality, Batangas","lat":14.05178,"lng":120.90685},{"id":"lavezares-northern-samar","name":"Lavezares","label":"Municipality, Northern Samar","lat":12.52366,"lng":124.34352},{"id":"lawaan-eastern-samar","name":"Lawaan","label":"Municipality, Eastern Samar","lat":11.21934,"lng":125.29253},{"id":"lazi-siquijor","name":"Lazi","label":"Municipality, Siquijor","lat":9.14017,"lng":123.6168},{"id":"lebak-sultan-kudarat","name":"Lebak","label":"Municipality, Sultan Kudarat","lat":6.6564,"lng":124.16722},{"id":"leganes-iloilo","name":"Leganes","label":"Municipality, Iloilo","lat":10.78832,"lng":122.60157},{"id":"legazpi-city-albay","name":"Legazpi City","label":"City, Albay","lat":13.13907,"lng":123.77287},{"id":"lemery-batangas","name":"Lemery","label":"Municipality, Batangas","lat":13.95777,"lng":120.88186},{"id":"lemery-iloilo","name":"Lemery","label":"Municipality, Iloilo","lat":11.22567,"lng":122.90893},{"id":"leon-iloilo","name":"Leon","label":"Municipality, Iloilo","lat":10.82575,"lng":122.32532},{"id":"leyte-leyte","name":"Leyte","label":"Municipality, Leyte","lat":11.32614,"lng":124.4908},{"id":"lezo-aklan","name":"Lezo","label":"Municipality, Aklan","lat":11.68069,"lng":122.31415},{"id":"lian-batangas","name":"Lian","label":"Municipality, Batangas","lat":13.99502,"lng":120.65626},{"id":"lianga-surigao-del-sur","name":"Lianga","label":"Municipality, Surigao del Sur","lat":8.61812,"lng":126.07728},{"id":"libacao-aklan","name":"Libacao","label":"Municipality, Aklan","lat":11.415,"lng":122.27509},{"id":"libagon-southern-leyte","name":"Libagon","label":"Municipality, Southern Leyte","lat":10.33382,"lng":125.06299},{"id":"libertad-misamis-oriental","name":"Libertad","label":"Municipality, Misamis Oriental","lat":8.52361,"lng":124.36278},{"id":"libjo-dinagat-islands","name":"Libjo","label":"Municipality, Dinagat Islands","lat":10.19578,"lng":125.56883},{"id":"libmanan-camarines-sur","name":"Libmanan","label":"Municipality, Camarines Sur","lat":13.66828,"lng":122.98869},{"id":"libon-albay","name":"Libon","label":"Municipality, Albay","lat":13.22652,"lng":123.37089},{"id":"libona-bukidnon","name":"Libona","label":"Municipality, Bukidnon","lat":8.2962,"lng":124.77166},{"id":"libungan-north-cotabato","name":"Libungan","label":"Municipality, North Cotabato","lat":7.33822,"lng":124.55523},{"id":"licab-nueva-ecija","name":"Licab","label":"Municipality, Nueva Ecija","lat":15.55083,"lng":120.77185},{"id":"licuan-baay-abra","name":"Licuan-Baay","label":"Municipality, Abra","lat":17.57337,"lng":120.88343},{"id":"lidlidda-ilocos-sur","name":"Lidlidda","label":"Municipality, Ilocos Sur","lat":17.25459,"lng":120.52852},{"id":"ligao-city-albay","name":"Ligao City","label":"City, Albay","lat":13.17038,"lng":123.49608},{"id":"lila-bohol","name":"Lila","label":"Municipality, Bohol","lat":9.6156,"lng":124.09929},{"id":"liliw-laguna","name":"Liliw","label":"Municipality, Laguna","lat":14.1319,"lng":121.45028},{"id":"liloan-cebu","name":"Liloan","label":"Municipality, Cebu","lat":10.41718,"lng":123.96827},{"id":"liloan-southern-leyte","name":"Liloan","label":"Municipality, Southern Leyte","lat":10.14636,"lng":125.15877},{"id":"liloy-zamboanga-del-norte","name":"Liloy","label":"Municipality, Zamboanga del Norte","lat":8.07094,"lng":122.67916},{"id":"limay-bataan","name":"Limay","label":"Municipality, Bataan","lat":14.54461,"lng":120.5514},{"id":"linamon-lanao-del-norte","name":"Linamon","label":"Municipality, Lanao del Norte","lat":8.16712,"lng":124.1666},{"id":"linapacan-palawan","name":"Linapacan","label":"Municipality, Palawan","lat":11.46696,"lng":119.81537},{"id":"lingayen-pangasinan","name":"Lingayen","label":"Municipality, Pangasinan","lat":15.98766,"lng":120.21725},{"id":"lipa-city-batangas","name":"Lipa City","label":"City, Batangas","lat":13.94446,"lng":121.16819},{"id":"llanera-nueva-ecija","name":"Llanera","label":"Municipality, Nueva Ecija","lat":15.65721,"lng":121.01339},{"id":"llorente-eastern-samar","name":"Llorente","label":"Municipality, Eastern Samar","lat":11.34898,"lng":125.42867},{"id":"loay-bohol","name":"Loay","label":"Municipality, Bohol","lat":9.61898,"lng":124.01982},{"id":"lobo-batangas","name":"Lobo","label":"Municipality, Batangas","lat":13.66601,"lng":121.26896},{"id":"loboc-bohol","name":"Loboc","label":"Municipality, Bohol","lat":9.64799,"lng":124.0421},{"id":"looc-romblon","name":"Looc","label":"Municipality, Romblon","lat":12.26633,"lng":121.99378},{"id":"loon-bohol","name":"Loon","label":"Municipality, Bohol","lat":9.80508,"lng":123.842},{"id":"lope-de-vega-northern-samar","name":"Lope de Vega","label":"Municipality, Northern Samar","lat":12.32971,"lng":124.64576},{"id":"lopez-quezon","name":"Lopez","label":"Municipality, Quezon","lat":13.85048,"lng":122.28992},{"id":"lopez-jaena-misamis-occidental","name":"Lopez Jaena","label":"Municipality, Misamis Occidental","lat":8.5274,"lng":123.71634},{"id":"loreto-agusan-del-sur","name":"Loreto","label":"Municipality, Agusan del Sur","lat":8.14077,"lng":125.63215},{"id":"loreto-dinagat-islands","name":"Loreto","label":"Municipality, Dinagat Islands","lat":10.35823,"lng":125.6182},{"id":"los-ba-os-laguna","name":"Los Baños","label":"Municipality, Laguna","lat":14.15153,"lng":121.21581},{"id":"luba-abra","name":"Luba","label":"Municipality, Abra","lat":17.32444,"lng":120.69581},{"id":"lubao-pampanga","name":"Lubao","label":"Municipality, Pampanga","lat":14.88391,"lng":120.5687},{"id":"lubuagan-kalinga","name":"Lubuagan","label":"Municipality, Kalinga","lat":17.31675,"lng":121.10422},{"id":"lucban-quezon","name":"Lucban","label":"Municipality, Quezon","lat":14.11661,"lng":121.56239},{"id":"lucena-city-quezon","name":"Lucena City","label":"City, Quezon","lat":13.93677,"lng":121.62283},{"id":"luisiana-laguna","name":"Luisiana","label":"Municipality, Laguna","lat":14.18134,"lng":121.52401},{"id":"lumba-bayabao-lanao-del-sur","name":"Lumba-Bayabao","label":"Municipality, Lanao del Sur","lat":7.72888,"lng":124.49132},{"id":"lumbaca-unayan-lanao-del-sur","name":"Lumbaca Unayan","label":"Municipality, Lanao del Sur","lat":7.72277,"lng":124.23389},{"id":"lumban-laguna","name":"Lumban","label":"Municipality, Laguna","lat":14.30699,"lng":121.5295},{"id":"lumbatan-lanao-del-sur","name":"Lumbatan","label":"Municipality, Lanao del Sur","lat":7.75205,"lng":124.24392},{"id":"lumbayanague-lanao-del-sur","name":"Lumbayanague","label":"Municipality, Lanao del Sur","lat":7.76653,"lng":124.28929},{"id":"luna-isabela","name":"Luna","label":"Municipality, Isabela","lat":16.9763,"lng":121.73257},{"id":"luna-la-union","name":"Luna","label":"Municipality, La Union","lat":16.84127,"lng":120.37959},{"id":"luna-apayao","name":"Luna","label":"Municipality, Apayao","lat":18.35036,"lng":121.25418},{"id":"lupao-nueva-ecija","name":"Lupao","label":"Municipality, Nueva Ecija","lat":15.85395,"lng":120.91159},{"id":"lupi-camarines-sur","name":"Lupi","label":"Municipality, Camarines Sur","lat":13.8529,"lng":122.87975},{"id":"lupon-davao-oriental","name":"Lupon","label":"Municipality, Davao Oriental","lat":7.0274,"lng":126.1404},{"id":"lutayan-sultan-kudarat","name":"Lutayan","label":"Municipality, Sultan Kudarat","lat":6.59781,"lng":124.87535},{"id":"luuk-sulu","name":"Luuk","label":"Municipality, Sulu","lat":5.95883,"lng":121.34929},{"id":"m-lang-north-cotabato","name":"M'Lang","label":"Municipality, North Cotabato","lat":6.96891,"lng":124.91505},{"id":"ma-ayon-capiz","name":"Ma-Ayon","label":"Municipality, Capiz","lat":11.34294,"lng":122.84545},{"id":"maasin-iloilo","name":"Maasin","label":"Municipality, Iloilo","lat":10.92101,"lng":122.40215},{"id":"maasin-city-southern-leyte","name":"Maasin City","label":"City, Southern Leyte","lat":10.18798,"lng":124.84825},{"id":"mabalacat-pampanga","name":"Mabalacat","label":"Municipality, Pampanga","lat":15.18267,"lng":120.51003},{"id":"mabinay-negros-oriental","name":"Mabinay","label":"Municipality, Negros Oriental","lat":9.71957,"lng":122.93417},{"id":"mabini-bohol","name":"Mabini","label":"Municipality, Bohol","lat":9.90738,"lng":124.51962},{"id":"mabini-compostela-valley","name":"Mabini","label":"Municipality, Compostela Valley","lat":7.33652,"lng":125.97125},{"id":"mabini-pangasinan","name":"Mabini","label":"Municipality, Pangasinan","lat":16.02077,"lng":120.00571},{"id":"mabitac-laguna","name":"Mabitac","label":"Municipality, Laguna","lat":14.43294,"lng":121.40557},{"id":"mabuhay-zamboanga-sibugay","name":"Mabuhay","label":"Municipality, Zamboanga Sibugay","lat":7.39319,"lng":122.87875},{"id":"macabebe-pampanga","name":"Macabebe","label":"Municipality, Pampanga","lat":14.89527,"lng":120.70004},{"id":"macalelon-quezon","name":"Macalelon","label":"Municipality, Quezon","lat":13.76284,"lng":122.18694},{"id":"macarthur-leyte","name":"Macarthur","label":"Municipality, Leyte","lat":10.81721,"lng":124.92168},{"id":"maco-compostela-valley","name":"Maco","label":"Municipality, Compostela Valley","lat":7.41375,"lng":125.97772},{"id":"maconacon-isabela","name":"Maconacon","label":"Municipality, Isabela","lat":17.36807,"lng":122.14156},{"id":"macrohon-southern-leyte","name":"Macrohon","label":"Municipality, Southern Leyte","lat":10.0919,"lng":124.95226},{"id":"madalag-aklan","name":"Madalag","label":"Municipality, Aklan","lat":11.44068,"lng":122.24023},{"id":"madalum-lanao-del-sur","name":"Madalum","label":"Municipality, Lanao del Sur","lat":7.87564,"lng":124.09562},{"id":"madamba-lanao-del-sur","name":"Madamba","label":"Municipality, Lanao del Sur","lat":7.86562,"lng":124.07804},{"id":"maddela-quirino","name":"Maddela","label":"Municipality, Quirino","lat":16.33358,"lng":121.68145},{"id":"madrid-surigao-del-sur","name":"Madrid","label":"Municipality, Surigao del Sur","lat":9.21536,"lng":125.90148},{"id":"magalang-pampanga","name":"Magalang","label":"Municipality, Pampanga","lat":15.22085,"lng":120.69961},{"id":"magallanes-agusan-del-norte","name":"Magallanes","label":"Municipality, Agusan del Norte","lat":9.03847,"lng":125.54658},{"id":"magallanes-cavite","name":"Magallanes","label":"Municipality, Cavite","lat":14.16149,"lng":120.75362},{"id":"magallanes-sorsogon","name":"Magallanes","label":"Municipality, Sorsogon","lat":12.80244,"lng":123.89202},{"id":"magarao-camarines-sur","name":"Magarao","label":"Municipality, Camarines Sur","lat":13.67649,"lng":123.17194},{"id":"magdalena-laguna","name":"Magdalena","label":"Municipality, Laguna","lat":14.19717,"lng":121.43162},{"id":"magdiwang-romblon","name":"Magdiwang","label":"Municipality, Romblon","lat":12.4585,"lng":122.51164},{"id":"magpet-north-cotabato","name":"Magpet","label":"Municipality, North Cotabato","lat":7.12386,"lng":125.16588},{"id":"magsaysay-davao-del-sur","name":"Magsaysay","label":"Municipality, Davao del Sur","lat":6.80057,"lng":125.17362},{"id":"magsaysay-lanao-del-norte","name":"Magsaysay","label":"Municipality, Lanao del Norte","lat":8.02744,"lng":123.92893},{"id":"magsaysay-occidental-mindoro","name":"Magsaysay","label":"Municipality, Occidental Mindoro","lat":12.33672,"lng":121.18119},{"id":"magsaysay-palawan","name":"Magsaysay","label":"Municipality, Palawan","lat":10.84092,"lng":121.03702},{"id":"magsingal-ilocos-sur","name":"Magsingal","label":"Municipality, Ilocos Sur","lat":17.68356,"lng":120.45315},{"id":"maguing-lanao-del-sur","name":"Maguing","label":"Municipality, Lanao del Sur","lat":7.90679,"lng":124.51068},{"id":"mahaplag-leyte","name":"Mahaplag","label":"Municipality, Leyte","lat":10.59532,"lng":124.99037},{"id":"mahatao-batanes","name":"Mahatao","label":"Municipality, Batanes","lat":20.4118,"lng":121.9505},{"id":"mahayag-zamboanga-del-sur","name":"Mahayag","label":"Municipality, Zamboanga del Sur","lat":8.13365,"lng":123.42312},{"id":"mahinog-camiguin","name":"Mahinog","label":"Municipality, Camiguin","lat":9.16957,"lng":124.76105},{"id":"maigo-lanao-del-norte","name":"Maigo","label":"Municipality, Lanao del Norte","lat":8.10189,"lng":123.97848},{"id":"maimbung-sulu","name":"Maimbung","label":"Municipality, Sulu","lat":5.94818,"lng":121.00853},{"id":"mainit-surigao-del-norte","name":"Mainit","label":"Municipality, Surigao del Norte","lat":9.54208,"lng":125.52552},{"id":"majayjay-laguna","name":"Majayjay","label":"Municipality, Laguna","lat":14.14306,"lng":121.48146},{"id":"makati-city-metropolitan-manila","name":"Makati City","label":"City, Metropolitan Manila","lat":14.55687,"lng":121.03152},{"id":"makato-aklan","name":"Makato","label":"Municipality, Aklan","lat":11.71321,"lng":122.26294},{"id":"makilala-north-cotabato","name":"Makilala","label":"Municipality, North Cotabato","lat":6.91192,"lng":125.13126},{"id":"malabang-lanao-del-sur","name":"Malabang","label":"Municipality, Lanao del Sur","lat":7.61608,"lng":124.08825},{"id":"malabon-metropolitan-manila","name":"Malabon","label":"City, Metropolitan Manila","lat":14.68045,"lng":120.96368},{"id":"malabuyoc-cebu","name":"Malabuyoc","label":"Municipality, Cebu","lat":9.66761,"lng":123.37317},{"id":"malalag-davao-del-sur","name":"Malalag","label":"Municipality, Davao del Sur","lat":6.50776,"lng":125.31279},{"id":"malangas-zamboanga-sibugay","name":"Malangas","label":"Municipality, Zamboanga Sibugay","lat":7.62383,"lng":123.01492},{"id":"malapatan-sarangani","name":"Malapatan","label":"Municipality, Sarangani","lat":5.9899,"lng":125.40052},{"id":"malasiqui-pangasinan","name":"Malasiqui","label":"Municipality, Pangasinan","lat":15.91225,"lng":120.46819},{"id":"malay-aklan","name":"Malay","label":"Municipality, Aklan","lat":11.87582,"lng":121.94778},{"id":"malaybalay-city-bukidnon","name":"Malaybalay City","label":"City, Bukidnon","lat":8.15113,"lng":125.14005},{"id":"malibcong-abra","name":"Malibcong","label":"Municipality, Abra","lat":17.57907,"lng":121.02979},{"id":"malilipot-albay","name":"Malilipot","label":"Municipality, Albay","lat":13.29518,"lng":123.72474},{"id":"malimono-surigao-del-norte","name":"Malimono","label":"Municipality, Surigao del Norte","lat":9.55746,"lng":125.43274},{"id":"malinao-aklan","name":"Malinao","label":"Municipality, Aklan","lat":11.60471,"lng":122.234},{"id":"malinao-albay","name":"Malinao","label":"Municipality, Albay","lat":13.39362,"lng":123.65459},{"id":"malita-davao-del-sur","name":"Malita","label":"Municipality, Davao del Sur","lat":6.30909,"lng":125.41814},{"id":"malitbog-bukidnon","name":"Malitbog","label":"Municipality, Bukidnon","lat":8.52839,"lng":124.96198},{"id":"malitbog-southern-leyte","name":"Malitbog","label":"Municipality, Southern Leyte","lat":10.17532,"lng":124.95921},{"id":"mallig-isabela","name":"Mallig","label":"Municipality, Isabela","lat":17.17218,"lng":121.61937},{"id":"malolos-city-bulacan","name":"Malolos City","label":"City, Bulacan","lat":14.81976,"lng":120.83785},{"id":"malungon-sarangani","name":"Malungon","label":"Municipality, Sarangani","lat":6.24776,"lng":125.38652},{"id":"maluso-basilan","name":"Maluso","label":"Municipality, Basilan","lat":6.53654,"lng":121.89194},{"id":"malvar-batangas","name":"Malvar","label":"Municipality, Batangas","lat":14.0385,"lng":121.14113},{"id":"mamasapano-maguindanao","name":"Mamasapano","label":"Municipality, Maguindanao","lat":6.92516,"lng":124.49908},{"id":"mambajao-camiguin","name":"Mambajao","label":"Municipality, Camiguin","lat":9.21344,"lng":124.70599},{"id":"mamburao-occidental-mindoro","name":"Mamburao","label":"Municipality, Occidental Mindoro","lat":13.24127,"lng":120.66334},{"id":"mambusao-capiz","name":"Mambusao","label":"Municipality, Capiz","lat":11.42021,"lng":122.59331},{"id":"manabo-abra","name":"Manabo","label":"Municipality, Abra","lat":17.41128,"lng":120.7215},{"id":"manaoag-pangasinan","name":"Manaoag","label":"Municipality, Pangasinan","lat":16.04714,"lng":120.49356},{"id":"manapla-negros-occidental","name":"Manapla","label":"Municipality, Negros Occidental","lat":10.90596,"lng":123.12818},{"id":"manay-davao-oriental","name":"Manay","label":"Municipality, Davao Oriental","lat":7.18213,"lng":126.44855},{"id":"mandaluyong-metropolitan-manila","name":"Mandaluyong","label":"City, Metropolitan Manila","lat":14.58582,"lng":121.03621},{"id":"mandaon-masbate","name":"Mandaon","label":"Municipality, Masbate","lat":12.22289,"lng":123.32019},{"id":"mandaue-city-cebu","name":"Mandaue City","label":"City, Cebu","lat":10.35399,"lng":123.94462},{"id":"mangaldan-pangasinan","name":"Mangaldan","label":"Municipality, Pangasinan","lat":16.06501,"lng":120.40781},{"id":"mangatarem-pangasinan","name":"Mangatarem","label":"Municipality, Pangasinan","lat":15.73333,"lng":120.29131},{"id":"mangudadatu-maguindanao","name":"Mangudadatu","label":"Municipality, Maguindanao","lat":6.68967,"lng":124.8457},{"id":"manila-metropolitan-manila","name":"Manila","label":"City, Metropolitan Manila","lat":14.59844,"lng":120.9902},{"id":"manjuyod-negros-oriental","name":"Manjuyod","label":"Municipality, Negros Oriental","lat":9.6986,"lng":123.09816},{"id":"mankayan-benguet","name":"Mankayan","label":"Municipality, Benguet","lat":16.83901,"lng":120.79178},{"id":"manolo-fortich-bukidnon","name":"Manolo Fortich","label":"Municipality, Bukidnon","lat":8.34357,"lng":124.91058},{"id":"mansalay-oriental-mindoro","name":"Mansalay","label":"Municipality, Oriental Mindoro","lat":12.55357,"lng":121.36829},{"id":"manticao-misamis-oriental","name":"Manticao","label":"Municipality, Misamis Oriental","lat":8.37404,"lng":124.34777},{"id":"manukan-zamboanga-del-norte","name":"Manukan","label":"Municipality, Zamboanga del Norte","lat":8.42391,"lng":123.11452},{"id":"mapanas-northern-samar","name":"Mapanas","label":"Municipality, Northern Samar","lat":12.45343,"lng":125.20556},{"id":"mapandan-pangasinan","name":"Mapandan","label":"Municipality, Pangasinan","lat":16.02397,"lng":120.45529},{"id":"maragondon-cavite","name":"Maragondon","label":"Municipality, Cavite","lat":14.22528,"lng":120.73322},{"id":"maragusan-compostela-valley","name":"Maragusan","label":"Municipality, Compostela Valley","lat":7.34729,"lng":126.16547},{"id":"maramag-bukidnon","name":"Maramag","label":"Municipality, Bukidnon","lat":7.78732,"lng":124.97144},{"id":"marantao-lanao-del-sur","name":"Marantao","label":"Municipality, Lanao del Sur","lat":7.97361,"lng":124.19791},{"id":"marawi-city-lanao-del-sur","name":"Marawi City","label":"City, Lanao del Sur","lat":8.03307,"lng":124.28647},{"id":"marcos-ilocos-norte","name":"Marcos","label":"Municipality, Ilocos Norte","lat":18.03074,"lng":120.70048},{"id":"margosatubig-zamboanga-del-sur","name":"Margosatubig","label":"Municipality, Zamboanga del Sur","lat":7.57695,"lng":123.18301},{"id":"maria-siquijor","name":"Maria","label":"Municipality, Siquijor","lat":9.17606,"lng":123.63919},{"id":"maria-aurora-aurora","name":"Maria Aurora","label":"Municipality, Aurora","lat":15.79541,"lng":121.4026},{"id":"maribojoc-bohol","name":"Maribojoc","label":"Municipality, Bohol","lat":9.75513,"lng":123.84792},{"id":"marihatag-surigao-del-sur","name":"Marihatag","label":"Municipality, Surigao del Sur","lat":8.79375,"lng":126.14348},{"id":"marikina-metropolitan-manila","name":"Marikina","label":"City, Metropolitan Manila","lat":14.64696,"lng":121.10144},{"id":"marilao-bulacan","name":"Marilao","label":"Municipality, Bulacan","lat":14.78067,"lng":120.98898},{"id":"mariveles-bataan","name":"Mariveles","label":"Municipality, Bataan","lat":14.46789,"lng":120.49797},{"id":"marogong-lanao-del-sur","name":"Marogong","label":"Municipality, Lanao del Sur","lat":7.60059,"lng":124.17245},{"id":"masantol-pampanga","name":"Masantol","label":"Municipality, Pampanga","lat":14.84058,"lng":120.68171},{"id":"masbate-city-masbate","name":"Masbate City","label":"City, Masbate","lat":12.35301,"lng":123.5643},{"id":"masinloc-zambales","name":"Masinloc","label":"Municipality, Zambales","lat":15.53629,"lng":120.06568},{"id":"masiu-lanao-del-sur","name":"Masiu","label":"Municipality, Lanao del Sur","lat":7.81347,"lng":124.3395},{"id":"maslog-eastern-samar","name":"Maslog","label":"Municipality, Eastern Samar","lat":12.10893,"lng":125.1859},{"id":"mataas-na-kahoy-batangas","name":"Mataas Na Kahoy","label":"Municipality, Batangas","lat":13.9863,"lng":121.10238},{"id":"matag-ob-leyte","name":"Matag-Ob","label":"Municipality, Leyte","lat":11.12308,"lng":124.45612},{"id":"matalam-north-cotabato","name":"Matalam","label":"Municipality, North Cotabato","lat":7.18446,"lng":124.93491},{"id":"matanao-davao-del-sur","name":"Matanao","label":"Municipality, Davao del Sur","lat":6.74049,"lng":125.23345},{"id":"matanog-shariff-kabunsuan","name":"Matanog","label":"Municipality, Shariff Kabunsuan","lat":7.47377,"lng":124.2635},{"id":"mati-city-davao-oriental","name":"Mati City","label":"City, Davao Oriental","lat":6.67655,"lng":126.22828},{"id":"matnog-sorsogon","name":"Matnog","label":"Municipality, Sorsogon","lat":12.60513,"lng":124.03876},{"id":"matuguinao-samar","name":"Matuguinao","label":"Municipality, Samar","lat":12.20106,"lng":125.00475},{"id":"matungao-lanao-del-norte","name":"Matungao","label":"Municipality, Lanao del Norte","lat":8.11032,"lng":124.16592},{"id":"mauban-quezon","name":"Mauban","label":"Municipality, Quezon","lat":14.25478,"lng":121.71053},{"id":"mawab-compostela-valley","name":"Mawab","label":"Municipality, Compostela Valley","lat":7.49454,"lng":125.92796},{"id":"mayantoc-tarlac","name":"Mayantoc","label":"Municipality, Tarlac","lat":15.55935,"lng":120.28968},{"id":"maydolong-eastern-samar","name":"Maydolong","label":"Municipality, Eastern Samar","lat":11.47268,"lng":125.36676},{"id":"mayorga-leyte","name":"Mayorga","label":"Municipality, Leyte","lat":10.88514,"lng":124.98954},{"id":"mayoyao-ifugao","name":"Mayoyao","label":"Municipality, Ifugao","lat":16.87345,"lng":121.25582},{"id":"medellin-cebu","name":"Medellin","label":"Municipality, Cebu","lat":11.13959,"lng":123.98332},{"id":"medina-misamis-oriental","name":"Medina","label":"Municipality, Misamis Oriental","lat":8.88604,"lng":124.97069},{"id":"mendez-cavite","name":"Mendez","label":"Municipality, Cavite","lat":14.12063,"lng":120.89357},{"id":"mercedes-camarines-norte","name":"Mercedes","label":"Municipality, Camarines Norte","lat":13.99072,"lng":123.04671},{"id":"mercedes-eastern-samar","name":"Mercedes","label":"Municipality, Eastern Samar","lat":11.09466,"lng":125.71672},{"id":"merida-leyte","name":"Merida","label":"Municipality, Leyte","lat":10.97259,"lng":124.5035},{"id":"mexico-pampanga","name":"Mexico","label":"Municipality, Pampanga","lat":15.10399,"lng":120.71578},{"id":"meycauayan-city-bulacan","name":"Meycauayan City","label":"City, Bulacan","lat":14.74894,"lng":120.97171},{"id":"miagao-iloilo","name":"Miagao","label":"Municipality, Iloilo","lat":10.68248,"lng":122.18767},{"id":"midsalip-zamboanga-del-sur","name":"Midsalip","label":"Municipality, Zamboanga del Sur","lat":8.03302,"lng":123.25644},{"id":"midsayap-north-cotabato","name":"Midsayap","label":"Municipality, North Cotabato","lat":7.13401,"lng":124.55413},{"id":"milagros-masbate","name":"Milagros","label":"Municipality, Masbate","lat":12.20024,"lng":123.4915},